clinic_name,clinic_address,clinic_phone,pincode,pincode_country,lat,lon
1 MEDICAL TECK GHEE,"410 Ang Mo Kio Avenue 10, #01-837, Teck Ghee Square, S560410",62517030,560410,"560410, Singapore",1.36271542,103.854645
18 CLINIC,"101 Towner Road, #01-228, S322101",62999750,322101,"322101, Singapore",1.31942539,103.8610875
338 FAMILY CLINIC,"338 Ang Mo Kio Ave 1, #01-1615, S560338",64549408,560338,"560338, Singapore",1.363822981,103.8489194
81 FAMILY CLINIC,"86 Marine Parade Central, #01-670, S440086",63466768,440086,"440086, Singapore",1.301737217,103.9067545
A & A CLINIC,"570B Woodlands Avenue 1, #01-07, S732570",63390883,732570,"732570, Singapore",1.431063955,103.7904541
A LIFE CLINIC PTE LTD,"10 Sinaran Drive, #09-21, Novena Medical Center, S307506",67372283,307506,"307506, Singapore",1.320441031,103.8441926
A MEDICAL CLINIC,"1 Everton Park, #01-27, Everton Park, S081001",62262066,81001,"081001, Singapore",1.277426543,103.8400012
A+FFORDABLE CLINIC (AMK AVE 10),"449 Ang Mo Kio Avenue 10, #01-1715, S560449",63437731,560449,"560449, Singapore",1.367841011,103.8560419
A1 MEDICAL CLINIC,"418 Bedok North Avenue 2, #01-63, Linear Green @ Bedok, S460418",64930198,460418,"460418, Singapore",1.328564212,103.9300365
ABLE MEDICAL,"201D Tampines Street 21, #01-1129, S524201",69093955,524201,"524201, Singapore",1.352141948,103.9540103
ACACIA MEDICAL CLINIC,"180 Depot Road, #01-07, Interlace, The, S109684",66840274,109684,"109684, Singapore",1.281984018,103.803053
ACUMED MEDICAL GROUP,"16 Collyer Quay, #02-03, Income At Raffles, S049318",65327766,49318,"049318, Singapore",1.28413252,103.8524489
ACUMED MEDICAL GROUP,"215C Compassvale Drive, #01-02, S543215",63850113,543215,"543215, Singapore",1.389770263,103.8927872
ACUMED MEDICAL GROUP,"38 Teban Gardens Road, #01-318/319, S600038",65619366,600038,"600038, Singapore",1.321138966,103.7427876
ACUMED MEDICAL GROUP,"1 Joo Koon Circle, #01-23, Fairprice Hub, S629117",68615755,629117,"629117, Singapore",1.325617641,103.6784106
ACUMED MEDICAL GROUP,"71 Pioneer Road, #01-06, Tuas Amenity Centre, S639591",68615996,639591,"639591, Singapore",1.317204168,103.6522087
ACUMED MEDICAL GROUP,"301 Boon Lay Way, #01-18/19, Boon Lay Mrt Station, S649846",65159919,649846,"649846, Singapore",1.338530909,103.7059113
ACUMED MEDICAL GROUP,"214 Bedok North Street 1, #01-165, S460214",64438077,460214,"460214, Singapore",1.325875651,103.932493
ACUMED MEDICAL GROUP,"64 Yung Kuang Road, #01-107/111, S610064",62656422,610064,"610064, Singapore",1.332373476,103.7224512
ACUMED MEDICAL GROUP,"1 Jurong West Central 2, #B1A-19E, Jurong Point Shopping Centre, S648886",67923822,648886,"648886, Singapore",1.339738866,103.7067896
ACUMED MEDICAL GROUP,"111 Woodlands Street 13, #01-78, S730111",63627789,730111,"730111, Singapore",1.437943817,103.7820594
ACUMED MEDICAL GROUP,"128 Tuas South Avenue 3, #01-03, S637370",65701390,637370,"637370, Singapore",1.289157929,103.6263975
ADIDAH FAMILY CLINIC & SURGERY,"821 Tampines St 81, #01-210, S520821",67845435,520821,"520821, Singapore",1.348419767,103.9346491
ADMIRALTY FAMILY MEDICAL CLINIC,"693 Woodlands Avenue 6, #01-08, S730693",69048894,730693,"730693, Singapore",1.438087881,103.803765
ADVANCE CLINIC & SURGERY PTE LTD,"301 Ubi Ave 1, #01-269, S400301",67421156,400301,"400301, Singapore",1.331129799,103.9020132
AE MEDICAL CLINIC,"467B Fernvale Link, #01-529, S792467",68162900,792467,"792467, Singapore",1.398071055,103.8779334
ALEXANDRA FAMILY CLINIC & SURGERY,"57 Dawson Road, #02-02, S142057",64797022,142057,"142057, Singapore",1.292703398,103.810959
ALLHEALTH FAMILY CLINIC,"872C Tampines Street 86, #01-01, S523872",67026467,523872,"523872, Singapore",1.355357078,103.9316914
ALLIANCE CLINIC AND PARTNERS PTE LTD,"652 Jalan Tenaga, #01-50, S410652",68469585,410652,"410652, Singapore",1.332696519,103.907743
AMDA INTERNATIONAL PEACE CLINIC (PHPC),"501 Orchard Road, #05-01, S238880",66941661,238880,"238880, Singapore",1.30453636,103.8307142
AMITY MEDICAL CLINIC & DENTAL SURGERY,"371 Bt Batok St 31, #01-314, S650371",65609292,650371,"650371, Singapore",1.359259409,103.7506946
AMK FAMILY CLINIC PTE LTD,"51 Ang Mo Kio Ave 3, #01-01, No 51 @ Amk, S569922",64544204,569922,"569922, Singapore",1.369262217,103.8471646
AMPM FAMILY CLINIC & SURGERY PTE. LTD.,"123 Toa Payoh Lor 1, #01-521, S310123",62530917,310123,"310123, Singapore",1.338649018,103.8457038
ANG MO KIO FAMILY MEDICINE CLINIC,"4190 Ang Mo Kio Avenue 6, #03-01, Broadway Plaza, S569841",65541133,569841,"569841, Singapore",1.371937283,103.8459495
ANG MO KIO MEDICAL CENTRE,"157 Ang Mo Kio Ave 4, #01-558, S560157",64570273,560157,"560157, Singapore",1.375305621,103.8393951
ANG MO KIO POLYCLINIC,"21 Ang Mo Kio Central 2, S569666",63553000,569666,"569666, Singapore",1.374324591,103.8456778
ANSARI FAMILY CLINIC & SURGERY,"78 Lorong 25A Geylang Road, S388259",67430714,388259,"388259, Singapore",1.315922331,103.8833379
ANTEH DISPENSARY PTE LTD,"1 Lorong 22 Geylang, #01-02, Grandview Suites, S398664",67441809,398664,"398664, Singapore",1.312776046,103.8824556
APEX CLINIC & SURGERY,"306 Woodlands St 31, #01-39, S730306",63677710,730306,"730306, Singapore",1.42992992,103.7746366
APEX CLINIC & SURGERY,"844 Yishun St 81, #01-162, S760844",67535621,760844,"760844, Singapore",1.415625173,103.8354465
APEX MEDICAL CENTRE (JURONG) PTE LTD,"960 Jurong West St 92, #01-172, S640960",67912292,640960,"640960, Singapore",1.341385312,103.6914596
APOLLO MEDICAL CENTRE,"668 Chander Road, #01-24, S210668",62962777,210668,"210668, Singapore",1.30758124,103.8514782
ASPEN CLINIC,"283 Bishan Street 22, #01-185, S570283",64553829,570283,"570283, Singapore",1.358919071,103.8447486
ASSOCIATE DISPENSARIES,"94 Toa Payoh Lor 4, #01-20, S310094",62562308,310094,"310094, Singapore",1.338894428,103.8495383
ASSURANCE MEDICARE CLINIC AND SURGERY,"370 Tanjong Katong Road, S437127",63457810,437127,"437127, Singapore",1.302888194,103.8967291
ATRIO FAMILY CLINIC,"291 Yishun Street 22, #01-349, S760291",67520838,760291,"760291, Singapore",1.435762303,103.8367289
ATRIO FAMILY CLINIC (AMK) PTE. LTD.,"532 Ang Mo Kio Avenue 10, #01-2461, Cheng San Centre, S560532",64554282,560532,"560532, Singapore",1.373808515,103.8545942
B T GOH FAMILY CLINIC & SURGERY,"194 Kim Keat Ave, #01-406, S310194",63544535,310194,"310194, Singapore",1.330939337,103.8581819
BALKIS FAMILY CLINIC,"631 Bedok Reservoir Rd, #01-968, S470631",64454711,470631,"470631, Singapore",1.332958733,103.9149418
BANYAN CLINIC @ JW,"502 Jurong West Avenue 1, #01-817, S640502",68991161,640502,"640502, Singapore",1.350501277,103.7183347
BANYAN CLINIC PTE LTD.,"768 Woodlands Avenue 6, #02-04, Woodlands Mart, S730768",63652001,730768,"730768, Singapore",1.445717841,103.7981663
BEDOK CENTRAL CLINIC,"214 Bedok North Street 1, #01-161, S460214",62424489,460214,"460214, Singapore",1.325875651,103.932493
BEDOK CLINIC & SURGERY(FAMILY MEDICAL CENTRE),"17 Bedok South Rd, #01-565, S460017",62410943,460017,"460017, Singapore",1.32014883,103.9355635
BEDOK LIFE CLINIC,"123 Bedok North St 2, #01-160, S460123",64431398,460123,"460123, Singapore",1.329198687,103.9373433
BEDOK MEDICAL CENTRE,"18 Bedok South Rd, #01-57, S460018",62414111,460018,"460018, Singapore",1.320527715,103.9347643
BEDOK POLYCLINIC,"Heartbeat@ #02-01, #03-01, 11 Bedok North St 1, S469662",66436969,469662,"469662, Singapore",1.326925407,103.9321049
BETHESDA MEDICAL CENTRE,"3 Temasek Boulevard, #03-330, Suntec City Mall, S38983",63378933,38983,"038983, Singapore",1.295711525,103.8585526
BISHAN GRACE CLINIC,"150 Bishan Street 11, #01-151, S570150",62542232,570150,"570150, Singapore",1.344641124,103.85539
BL MEDICAL ASSOCIATES,"2 Science Park Drive, #01-10, Ascent, S118222",62651052,118222,"118222, Singapore",1.291082003,103.784565
BLESS MEDICAL CENTRE PTE LTD,"221 Boon Lay Place, #01-108, Boon Lay Shopping Centre, S640221",62664119,640221,"640221, Singapore",1.346373764,103.7124728
BOK FAMILY CLINIC PTE LTD,"117 Bedok Reservoir Road, #01-58, S470117",67478200,470117,"470117, Singapore",1.331413249,103.9086889
BOON KENG CLINIC & SURGERY,"11 Upper Boon Keng Rd, #01-919, S380011",67465456,380011,"380011, Singapore",1.31423937,103.870914
BOON LAY CLINIC & SURGERY,"221 Boon Lay Place, #01-240/244, S640221",62655247,640221,"640221, Singapore",1.346373764,103.7124728
BOON LAY CORPORATION CLINIC,"350 Jurong East Avenue 1, #01-1225, S600350",68994569,600350,"600350, Singapore",1.344049419,103.7312556
BOSTON MEDICAL CLINIC,"119 Aljunied Avenue 2, #01-72, S380119",68179036,380119,"380119, Singapore",1.319785914,103.8867673
BRADDELL MEDICAL CLINIC,"124 Lorong 1 Toa Payoh, #01-489, S310124",62536288,310124,"310124, Singapore",1.338648767,103.8446273
BUKIT BATOK MEDICAL CLINIC,"207 Bukit Batok St 21, #01-114, S650207",65603311,650207,"650207, Singapore",1.346248662,103.7493822
BUKIT BATOK POLYCLINIC,"50 Bukit Batok West Ave 3, S659164",63553000,659164,"659164, Singapore",1.352015176,103.7478223
BUKIT MERAH POLYCLINIC,"Blk 163 Bukit Merah Central, #04-3565, S150163",66436969,150163,"150163, Singapore",1.28370221,103.8169496
BUKIT TIMAH CLINIC,"621A Bukit Timah Road, S269731",64665458,269731,"269731, Singapore",1.324575359,103.8090586
BUKIT TIMAH NAM SANG CLINIC,"80 Jln Jurong Kechil, S598591",64690760,598591,"598591, Singapore",1.340555306,103.7732374
C & K FAMILY CLINIC PTE LTD,"108 Upper East Coast Road, S455297",62429588,455297,"455297, Singapore",1.313169342,103.9293052
C H TAN MEDICAL CLINIC & DENTAL SURGERY,"177 Bt Batok West Ave 8, #01-259, S650177",65618712,650177,"650177, Singapore",1.346344075,103.7417421
C K TAN FAMILY CLINIC & SURGERY PTE LTD,"125 Toa Payoh Lor 1, #01-537, S310125",62514438,310125,"310125, Singapore",1.338331334,103.8457371
C.M.C. WONG BINJAI CLINIC,"15 Binjai Park, S589824",64693737,589824,"589824, Singapore",1.336227629,103.7868118
C3 FAMILY CLINIC @ALJUNIED CRESCENT,"95 Aljunied Crescent, #01-509, Macpherson View, S380095",67422285,380095,"380095, Singapore",1.32170329,103.8861957
CALROSE MEDICAL FAMILY CLINIC,"231A Sumang Lane, #01-05, Matilda Court, S821231",69571750,821231,"821231, Singapore",1.402059178,103.8918791
CAMRY MEDICAL CENTRE,"95 Toa Payoh Lorong 4, #01-66, S310095",62580553,310095,"310095, Singapore",1.338974038,103.8490021
CANBERRA CARE MEDICAL CLINIC,"120 Canberra Crescent, #01-04, Multi Storey Car Park, S750120",64831128,750120,"750120, Singapore",1.445653757,103.8314398
CANBERRA MEDICAL AESTHETICS,"306A Canberra Road, #01-01, Multi Storey Car Park, S751306",68520500,751306,"751306, Singapore",1.445358562,103.8225877
CARE FAMILY CLINIC,"663 Buffalo Road, #01-12, S210663",62995868,210663,"210663, Singapore",1.305681175,103.8508577
CARE MEDICAL PTE LTD,"683 Hougang Ave 8, #01-931, S530683",63872272,530683,"530683, Singapore",1.373321226,103.8863655
CARELINK FAMILY CLINIC,"400 Baliestier Road, #01-09/10, S329802",62545287,329802,"329802, Singapore",1.325744091,103.8503826
CARING FAMILY CLINIC,"501 Jurong West Street 51, #01-271, S640501",65645677,640501,"640501, Singapore",1.350384137,103.7190256
CARITAS CLINIC,"304 Ubi Ave 1, #01-127, S400304",67489284,400304,"400304, Singapore",1.329552569,103.9012286
CASHEW MEDICAL & SURGERY,"445 Fajar Rd, #02-522, Fajar Shopping Centre, S670445",67634255,670445,"670445, Singapore",1.383574699,103.7708685
CCK FAMILY CLINIC,"304 Choa Chu Kang Ave 4, #01-653, S680304",68910338,680304,"680304, Singapore",1.384494069,103.7431465
CECILIA FAMILY CLINIC & SURGERY,"484 Tampines St 43, #01-224, S520484",67883812,520484,"520484, Singapore",1.361897859,103.9526394
CENTRAL 24-HR CLINIC ( PIONEER NORTH ),"959 Jurong West Street 92, #01-160, S640959",62512775,640959,"640959, Singapore",1.341472501,103.6907543
CENTRAL 24-HR CLINIC (BEDOK),"219 Bedok Central, #01-124, Multi Storey Car Park, S460219",62476122,460219,"460219, Singapore",1.325005853,103.9329544
CENTRAL 24-HR CLINIC (CLEMENTI),"450 Clementi Ave 3, #01-291, S120450",67732925,120450,"120450, Singapore",1.313538861,103.7654763
CENTRAL 24-HR CLINIC (HOUGANG),"681 Hougang Ave 8, #01-831, S530681",63876965,530681,"530681, Singapore",1.37311063,103.8856366
CENTRAL 24HR CLINIC (JURONG WEST),"492 Jurong West Street 41, #01-54, S640492",65657484,640492,"640492, Singapore",1.350085031,103.7247573
CENTRAL 24-HR CLINIC (MARSILING),"303 Woodlands Street 31, #01-185, S730303",63437731,730303,"730303, Singapore",1.430951031,103.7737616
CENTRAL 24-HR CLINIC (PASIR RIS),"446 Pasir Ris Drive 6, #01-122, S510446",65822640,510446,"510446, Singapore",1.370311571,103.9575656
CENTRAL 24-HR CLINIC (TAMPINES),"201D Tampines Street 21, #01-1151, S524201",63437731,524201,"524201, Singapore",1.352141948,103.9540103
CENTRAL 24-HR CLINIC (WOODLANDS),"768 Woodlands Avenue 6, #02-06A, Woodlands Mart, S730768",63654895,730768,"730768, Singapore",1.445717841,103.7981663
CENTRAL 24-HR CLINIC (YISHUN),"701A Yishun Ave 5, #01-04, S761701",67597985,761701,"761701, Singapore",1.429941856,103.8279847
CENTRAL MEDICAL GROUP PTE LTD,"11 Jalan Bukit Merah, #01-4442, S150011",62722212,150011,"150011, Singapore",1.286621904,103.8089633
CHAI CHEE CLINIC & SURGERY,"25A Chai Chee Rd, #01-453, S461025",62441231,461025,"461025, Singapore",1.323290228,103.9241518
CHAN FAMILY CLINIC,"865 Mountbatten Road, #02-81H, S437844",63454683,437844,"437844, Singapore",1.303820402,103.90104
CHANG CLINIC,"1 Jln Anak Bukit, #B1-08/09/10, Bukit Timah Plaza, S588996",64663811,588996,"588996, Singapore",1.338631653,103.7785854
CHANG CLINIC & SURGERY,"7 Everton Park, #01-21, S80007",62216955,80007,"080007, Singapore",1.277042412,103.839265
CHANGI CLINIC,"848 Sims Avenue, #01-734, Eunosville, S400848",67428865,400848,"400848, Singapore",1.31720886,103.9014318
CHEN FAMILY CLINIC,"153 Serangoon North Ave 1, #01-490, S550153",62812212,550153,"550153, Singapore",1.369950992,103.8723123
CHENG CLINIC,"447 Ang Mo Kio Ave 10, #01-1677, S560447",64542482,560447,"560447, Singapore",1.367479014,103.8559671
CHEONG FAMILY CLINIC PTE LTD,"45 Owen Rd, #01-293, S210045",62975125,210045,"210045, Singapore",1.315595676,103.8508255
CHIA & LEE MEDICAL & DENTAL CLINIC,"802 Tampines Ave 4, #01-15, S520802",67812969,520802,"520802, Singapore",1.346084424,103.938034
CHIA CLINIC AND SURGERY,"27 Foch Road, #01-04, Hoa Nam Building, S209264",62980959,209264,"209264, Singapore",1.312722783,103.859959
CHIN CHOO CLINIC,"35 Circuit Road, #01-430, S370035",67452815,370035,"370035, Singapore",1.329158997,103.8860103
CHIN MEDICAL CLINIC,"524A Jelapang Road, #02-02A, Greenridge Shopping Centre, S671524",64688195,671524,"671524, Singapore",1.385295565,103.7661705
CHINATOWN WELLNESS CLINIC,"531 Upper Cross Street, #02-02, Hong Lim Complex, S50531",62267188,50531,"050531, Singapore",1.284148764,103.8457041
CHNG CLINIC AND SURGERY,"178 Toa Payoh Central, #01-236, S310178",62504522,310178,"310178, Singapore",1.333580258,103.8492645
CHOA CHU KANG POLYCLINIC,"2 Teck Whye Cres, S688846",63553000,688846,"688846, Singapore",1.382324314,103.7508147
CHONG & LIM FAMILY CLINIC,"103 Gangsa Road, #01-39, S670103",67626881,670103,"670103, Singapore",1.378670708,103.7685384
CHONG MEDICAL CLINIC,"703 Bedok Reservoir Road, #01-3500, S470703",62414678,470703,"470703, Singapore",1.337165074,103.9198931
CHONG'S MEDICAL CENTRE,"190 Clemenceau Ave, #01-29/30, Singapore Shopping Centre, S239924",63383297,239924,"239924, Singapore",1.298132148,103.8441384
CHOONG'S CLINIC,"21 Old Airport Rd, #01-97, S390021",63442400,390021,"390021, Singapore",1.307586139,103.884413
CHOONG'S CLINIC,"480 Tampines St 44, #01-261, S520480",67885190,520480,"520480, Singapore",1.361898695,103.9536131
CHUA & PARTNERS FAMILY CLINIC,"18 Jalan Membina, #02-05, S164018",62719004,164018,"164018, Singapore",1.28567232,103.8267843
CHUA CLINIC,"678 Hougang Ave 8, #01-513, S530678",63865720,530678,"530678, Singapore",1.370840764,103.8842364
CHUA CLINIC & SURGERY,"769 Yishun Ave 3, #01-281, S760769",62571690,760769,"760769, Singapore",1.424602053,103.8332224
CHUA MEDICAL CENTRE PTE LTD,"248 Simei St 3, #01-134, S520248",67853825,520248,"520248, Singapore",1.343778387,103.9533823
CHUA MEDICO CLINIC LLP,"529 Ang Mo Kio Ave 10, #01-2323, S560529",64562275,560529,"560529, Singapore",1.372343582,103.8554554
CHUAH CLINIC & SURGERY PTE LTD,"113 Aljunied Ave 2, #01-19, S380113",67452104,380113,"380113, Singapore",1.320525959,103.8861593
CIRCUIT MEDICAL CLINIC,"36 Circuit Road, #01-424, Balam Gardens, S370036",90462119,370036,"370036, Singapore",1.329059635,103.8869253
CITYGP FAMILY CLINIC,"122 Bedok North Street 2, #01-106, S460122",62414702,460122,"460122, Singapore",1.328617198,103.9377871
CITYHEALTH CLINIC & SURGERY,"152 Beach Road, #03-08, Gateway East, S189721",68225398,189721,"189721, Singapore",1.298825094,103.8594119
CLARION MEDICAL,"202 Ang Mo Kio Avenue 3, #01-1676, Ang Mo Kio View, S560202",63530818,560202,"560202, Singapore",1.368457523,103.8445153
CLEMENTI POLYCLINIC,"451 Clementi Polyclinic Ave 3, #02-307, S120451",63553000,120451,"120451, Singapore",1.312648085,103.7656803
CLIFFORD DISPENSARY PTE LTD,"50 Airport Boulevard, #03-50A, Dnata Building, S819658",65460923,819658,"819658, Singapore",1.3486,103.986
CLIFFORD DISPENSARY PTE LTD,"350 Orchard Road, #15-03, Shaw House, S238868",62353757,238868,"238868, Singapore",1.3055,103.8316
CLINIC @ THE SAIL,"2 Marina Boulevard, #B1-11/12, The Sail @ Marina Bay, S018987",62255410,18987,"018987, Singapore",1.280769435,103.8526586
CLINIC FARIDAH,"59 New Upper Changi Road, #01-1230, S461059",64427480,461059,"461059, Singapore",1.324063953,103.9407491
CLINIC@COSTA,"84 Bayshore Road, #01-35/36, Costa Del Sol, S469994",62433638,469994,"469994, Singapore",1.312188165,103.940117
CLINICAL ASSOCIATES MEDICAL CENTRE,"137 Teck Whye Lane, #01-313, S680137",67624180,680137,"680137, Singapore",1.380047726,103.7524646
CLOVER MEDICAL CLINIC PTE LTD,"21 Choa Chu Kang North 6, #01-01, Yew Tee Point, S689578",65094480,689578,"689578, Singapore",1.397084324,103.746598
COMFORT CLINIC & SURGERY,"214 Serangoon Ave 4, #01-100, S550214",62807271,550214,"550214, Singapore",1.357324352,103.8736335
CORNERSTONE MEDICAL,"29A Ghim Moh Link, #01-03, S271029",62620018,271029,"271029, Singapore",1.308492881,103.7845981
CORPORATION CLINIC (CHOA CHU KANG),"253 Choa Chu Kang Ave 1, #01-21, S680253",67643085,680253,"680253, Singapore",1.377439635,103.7443832
CRAWFURD MEDICAL,"3 Temasek Boulevard, #02-482, Suntec City Mall, S38983",68049580,38983,"038983, Singapore",1.295711525,103.8585526
CREST FAMILY CLINIC PTE. LTD.,"724 Woodlands Ave 6, #01-502, S730724",63650906,730724,"730724, Singapore",1.444510924,103.7988322
CROSS STREET MEDICAL CLINIC,"531 Upper Cross Street, #01-35, Hong Lim Complex, S50531",65350608,50531,"050531, Singapore",1.284148764,103.8457041
CROSSROADS FAMILY CLINIC,"601B Tampines Avenue 9, #01-10, Tampines Greenridges, S522601",65927080,522601,"522601, Singapore",1.360882775,103.9375108
DA CLINIC @ ANCHORVALE,"351 Anchorvale Road, #01-01, S540351",62417460,540351,"540351, Singapore",1.393327866,103.8866176
DA CLINIC @ ANSON,"10 Anson Road, #01-12, International Plaza, S079903",69541012,79903,"079903, Singapore",1.275856669,103.8459551
DA CLINIC @ BISHAN,"501 Bishan Street 11, #01-374, S570501",62623759,570501,"570501, Singapore",1.348416624,103.8490804
DA CLINIC @ BUKIT BATOK,"451 Bukit Batok West Avenue 6, #01-02, S650451",62599531,650451,"650451, Singapore",1.353038249,103.7439484
DA CLINIC @ POTONG PASIR,"51 Upper Serangoon Road, #01-53, The Poiz Centre, S347697",69540513,347697,"347697, Singapore",1.331303514,103.8680765
DA CLINIC @ SEMBAWANG,"604 Sembawang Road, #B1-06, Sembawang Shopping Centre, S758459",62193658,758459,"758459, Singapore",1.441752968,103.8247917
DA CLINIC @ TAMAN JURONG,"140 Corporation Drive, #01-03, S610140",69639892,610140,"610140, Singapore",1.326873824,103.7234212
DAILY MEDICAL CENTRE,"159 Hougang Street 11, #01-17, S530159",62843218,530159,"530159, Singapore",1.351448325,103.8795172
DAYSPRING MEDICAL CLINIC (TAMPINES),"2 Tampines Central 5, #04-09, Century Square, S529509",67890123,529509,"529509, Singapore",1.352361131,103.9437848
DOCTORS CLINIC & SURGERY,"305 Woodlands Street 31, #01-91, S730305",62691017,730305,"730305, Singapore",1.430361458,103.7741024
DOCTORS FOR LIFE MEDICAL,"3 Pickering Street, #01-02, S048660",69090527,48660,"048660, Singapore",1.284367997,103.8473638
DOCTORS INC MEDICAL GROUP,"190 Toa Payoh Lorong 6, #01-590, S310190",63563633,310190,"310190, Singapore",1.332979134,103.848705
"DOCTORS KOO, LOH & ASSOCIATES (PTE) LTD","152 Yung Ho Rd, #B1-03, S610152",62665939,610152,"610152, Singapore",1.327187243,103.7205364
DOVER MEDICAL CENTRE,"1 Fusionopolis Way, #03-05, Connexis, S138632",67756266,138632,"138632, Singapore",1.299383209,103.7875887
DR CHEN AND PARTNERS MEDICAL CLINIC,"9 Sin Ming Road, #B1-01, Thomson V One, S575630",81233740,575630,"575630, Singapore",1.35319483,103.8355646
DR CHUA & LEE FAMILY CLINIC,"213 Bishan Street 23, #B1-235, S570213",62616988,570213,"570213, Singapore",1.357178221,103.848153
DR CHUA'S FAMILY CLINIC PTE. LTD.,"638 Jurong West Street 61, #02-04, Pioneer Mall, S640638",67928505,640638,"640638, Singapore",1.341673319,103.6972445
DR GARY'S FAMILY CLINIC,"77 Indus Road, #01-519, Indus Garden, S160077",69048089,160077,"160077, Singapore",1.291134836,103.8267645
DR JEREMY CHAN MEDICAL CLINIC,"123 Lorong 1 Toa Payoh, #01-493, S310123",62504191,310123,"310123, Singapore",1.338649018,103.8457038
DR JOYCE & PARTNERS FAMILY CLINIC,"224A Sumang Lane, #01-01, Matilda Edge, S821224",69267607,821224,"821224, Singapore",1.401956216,103.8928113
DR JOYCE & PARTNERS FAMILY CLINIC (TOA PAYOH BRANCH),"177 Toa Payoh Central, #01-146, S310177",69267607,310177,"310177, Singapore",1.333902459,103.8488447
DR KEVIN CHUA MEDICAL & AESTHETICS,"360 Orchard Road, International Building, #03-05, S238869",66946700,238869,"238869, Singapore",1.306078557,103.8310148
DR NAH & LEE FAMILY CLINIC,"780 Woodlands Crescent, #01-03, Multi Storey Car Park, S730780",62501528,730780,"730780, Singapore",1.448253,103.800915
DR W.K. KOO & ASSOCIATES P.L.,"1 Jurong West Central 2, #01-16A&B, Jurong Point, S648886",67922669,648886,"648886, Singapore",1.339738866,103.7067896
DRS CHAN & TANG FAMILY CLINIC,"125 Lorong 1 Toa Payoh, #01-549, S310125",62511782,310125,"310125, Singapore",1.338331334,103.8457371
DRS CHUA & PARTNERS PTE LTD,"1 Tanjong Pagar Plaza, #01-10, S082001",62210607,82001,"082001, Singapore",1.275570062,103.8426834
"DRS KOO, FOK & ASSOCIATES PTE LTD","55 Benoi Road, #01-12, S629907",62613629,629907,"629907, Singapore",1.325617641,103.6784106
"DRS KOO, FOK & ASSOCIATES( PIONEER )","31 Jurong West Street 63, #02-04, S648310",68622380,648310,"648310, Singapore",1.337586882,103.6973215
"DRS KOO, KOH & ASSOCIATES P.L.","163 Bukit Merah Central, #01-3609, S150163",62712395,150163,"150163, Singapore",1.28370221,103.8169496
DRS LIM & CHAN CLINIC,"2 Lor Lew Lian, #01-50, S531002",62803009,531002,"531002, Singapore",1.350577179,103.8756482
DRS LIM & CHAN CLINIC,"106 Hougang Ave 1, #01-1235, S530106",62800990,530106,"530106, Singapore",1.353703135,103.8906808
"DRS OH, LIM, WONG & PARTNERS","959 Jurong West St 92, #01-154, S640959",67913988,640959,"640959, Singapore",1.341472501,103.6907543
"DRS SINGH & PARTNERS, RAFFLES CITY MEDICAL CENTRE","252 North Bridge Rd, #02-16, Raffles City Shopping Centre, S179103",63388883,179103,"179103, Singapore",1.293893579,103.8531199
DRS TANG & PARTNERS PTE. LTD.,"64 Yung Kuang Road, #01-115, S610064",62656077,610064,"610064, Singapore",1.332373476,103.7224512
DUXTON MEDICAL CLINIC,"7 Tanjong Pagar Plaza, #01-106, S81007",65383573,81007,"081007, Singapore",1.277120122,103.8431177
DUXTON MEDICAL CLINIC CANBERRA,"361 Sembawang Crescent, #01-03, S750361",65383573,750361,"750361, Singapore",1.446315068,103.8139368
E MEDICAL CLINIC & SURGERY,"126 Lorong 1 Toa Payoh, #01-567, S310126",63569391,310126,"310126, Singapore",1.337814657,103.8451309
E.J. TAN CLINIC & SURGERY,"104 Jurong East St 13, #01-100, S600104",65606600,600104,"600104, Singapore",1.336584653,103.7376233
EAST COAST FAMILY CLINIC,"121 Meyer Road, #01-05, The Makena, S437932",64404556,437932,"437932, Singapore",1.297692663,103.8944461
EAST COAST MEDICAL CENTRE PTE LTD,"57A New Upper Changi Rd, #01-1374, S462057",64430109,462057,"462057, Singapore",1.323716787,103.9412887
EASTERN CLINIC & SURGERY PTE LTD,"235 Jurong East Street 21, #01-316, S600235",65614458,600235,"600235, Singapore",1.339975979,103.74216
EASTERN CLINIC & SURGERY PTE LTD,"318 Jurong East Street 31, #01-48, S600318",65631206,600318,"600318, Singapore",1.347508229,103.7305607
EASTERN CLINIC AND DENTAL SURGERY,"303 Jurong East St 32, #01-92, S600303",65622941,600303,"600303, Singapore",1.344856112,103.7356222
EASTERN MEDICAL CENTRE,"631 Bedok Reservoir Rd, #01-896, S470631",64487628,470631,"470631, Singapore",1.332958733,103.9149418
EC FAMILY CLINIC,"30 Eunos Crescent, #01-17/18, Eunos Mrt Station, S409423",67426103,409423,"409423, Singapore",1.319727157,103.9031003
EDGEDALE MEDICAL CLINIC,"122A Edgedale Plains, #01-187, S821122",66352272,821122,"821122, Singapore",1.393509812,103.9091066
EDGEDALE MEDICAL CLINIC (CAMBRIDGE),"40 Cambridge Road, #01-115, S210040",62921088,210040,"210040, Singapore",1.315993017,103.8482431
EE CLINIC,"128 Ang Mo Kio Ave 3, #01-1859, S560128",64521042,560128,"560128, Singapore",1.370832028,103.843547
EH MEDICAL,"785E Woodlands Rise, #01-12, S735785",62511526,735785,"735785, Singapore",1.446804139,103.8054876
EH MEDICAL FAMILY CLINIC (BUKIT BATOK),"292 Bukit Batok East Avenue 6, #01-07, S650292",62551368,650292,"650292, Singapore",1.344498105,103.7553752
EHA CLINIC @ JURONG,"492 Jurong West Street 41, #01-40, S640492",65660257,640492,"640492, Singapore",1.350085031,103.7247573
EIDDWEN FAMILY MEDICINE CLINIC,"34 Cassia Crescent, #01-80, S390034",69705818,390034,"390034, Singapore",1.309640784,103.8844718
EJ FAMILY CLINIC & SURGERY,"109 Toa Payoh Lor 1, #01-314, S310109",63530811,310109,"310109, Singapore",1.341237271,103.8462025
ELIAS FAMILY CLINIC & SURGERY,"625 Elias Rd, #01-320, S510625",65847760,510625,"510625, Singapore",1.37860239,103.9419782
ELISSA MEDICAL CLINIC,"1 Hougang Street 91, #01-21, Hougang 1, S538692",63122632,538692,"538692, Singapore",1.375667283,103.8794503
ELYON FAMILY CLINIC AND SURGERY,"78B Telok Blangah Street 32, #01-22, S102078",68027208,102078,"102078, Singapore",1.27363296,103.8083352
EMMANUEL MEDICAL CLINIC,"272 Tampines Street 22, #01-26, S520272",67810810,520272,"520272, Singapore",1.349159418,103.9502815
EON MEDICAL CLINIC,"475 Upper Serangoon Crescent, #01-04, Multi Storey Car Park, S530475",63840904,530475,"530475, Singapore",1.37571548,103.9006753
ESSENTIAL FAMILY CLINIC & SURGERY,"626A Woodlands Dr 52, #01-01, S731626",63668057,731626,"731626, Singapore",1.434097994,103.8001313
ETERN MEDICAL CLINIC,"70 Punggol Central, #01-05, Punggol Mrt Station, S828868",64259935,828868,"828868, Singapore",1.404562859,103.9020917
ETERN MEDICAL CLINIC (FERNVALE PALM),"432A Sengkang West Way, #01-03, S791432",66047224,791432,"791432, Singapore",1.394750476,103.8772023
ETERN MEDICAL CLINIC (PUNGGOL SUMANG LRT),"308C Punggol Walk, #01-302, Waterway Terraces I, S823308",62467288,823308,"823308, Singapore",1.408006949,103.8990744
ETERN MEDICAL CLINIC (SENGKANG),"33 Sengkang West Avenue, #03-33, The Seletar Mall, S797653",65257255,797653,"797653, Singapore",1.391368809,103.876157
EVANGEL MEDICAL CLINIC,"10 Chai Chee Rd, #01-01, S467010",64490555,467010,"467010, Singapore",1.327275724,103.9248036
EVERHEALTH FAMILY CLINIC & SURGERY,"762 Jurong West St 75, #01-290, Gek Poh Shopping Centre, S640762",67933113,640762,"640762, Singapore",1.348741647,103.6977396
EVERHEALTH MEDICAL CENTRE,"540 Hougang Avenue 8, #B1-1235, S530540",63850815,530540,"530540, Singapore",1.377815681,103.8912825
EVERTON CLINIC,"7 Everton Park, #01-17, S80007",62207872,80007,"080007, Singapore",1.277042412,103.839265
EXCEL FAMILY CLINIC,"21 Hougang St 51, #01-06, Hougang Green Shopping Mall, S538719",63865278,538719,"538719, Singapore",1.379317835,103.8878471
EXCELSIOR CLINIC & SURGERY,"283 Bt Batok East Ave 3, #01-261, S650283",65673822,650283,"650283, Singapore",1.347254312,103.7573601
F K LIM FAMILY CLINIC,"267 Tampines St 21, #01-43, S520267",67860201,520267,"520267, Singapore",1.351345629,103.9490914
FABER CLINIC & SURGERY,"501 West Coast Dr, #01-284, S120501",67767723,120501,"120501, Singapore",1.312312548,103.7593125
FAITH CLINIC (BEDOK),"746 Bedok Reservoir Road, #01-3013, S470746",67020820,470746,"470746, Singapore",1.337286448,103.9212157
FAITH CLINIC (JURONG WEST),"762 Jurong West St 75, #02-256D, S640762",67916780,640762,"640762, Singapore",1.348741647,103.6977396
FAITH CLINIC (SIMEI),"139 Simei St 1, #01-10, S520139",67884303,520139,"520139, Singapore",1.34668351,103.9565613
FAITH CLINIC (TOA PAYOH),"211 Toa Payoh Lor 8, #01-19, S310211",62527896,310211,"310211, Singapore",1.340421789,103.8537689
FAITH CLINIC (YISHUN),"598 Yishun Ring Road, #01-11, Wisteria Mall, S768698",64448019,768698,"768698, Singapore",1.417999263,103.8412365
FAITH FAMILY CLINIC,"57 Marine Terrace, #01-113, S440057",64466326,440057,"440057, Singapore",1.306512573,103.9154848
FAITH HEALTHCARE (RIVERVALE),"11 Rivervale Crescent, #02-15, Rivervale Mall, S545082",63157879,545082,"545082, Singapore",1.392217327,103.9044731
FAITH HEALTHCARE (TAMPINES),"11 Tampines Street 32, #01-11, Tampines Mart, S529287",64433843,529287,"529287, Singapore",1.354364938,103.9600422
FAITH MEDICAL CLINIC & SURGERY,"487C Tampines St 45, #B1-103, S522487",67881061,522487,"522487, Singapore",1.360751386,103.9578771
FAJAR FAMILY CLINIC & SURGERY,"445 Fajar Road, #01-550, Fajar Shopping Centre, S670445",67690636,670445,"670445, Singapore",1.383574699,103.7708685
FAMILY CARE CLINIC & SURGERY,"608 Ang Mo Kio Ave 5, #01-2785, S560608",64588737,560608,"560608, Singapore",1.3785821,103.8367603
FAMILY CARE MEDICAL CENTRE PTE LTD,"916 Hougang Ave 9, #01-08, S530916",63855177,530916,"530916, Singapore",1.374912242,103.8842481
FAMILY DOCTORS AT 365,"365 Corporation Drive, #01-407, S610365",62652968,610365,"610365, Singapore",1.337725927,103.7201847
FAMILY HEALTH CLINIC & SURGERY,"2 Balestier Road, #01-651, Balestier Hill Shopping Centre, S320002",62542440,320002,"320002, Singapore",1.32589621,103.8429355
FAMILY HEALTH MEDICAL CENTRE,"226G Ang Mo Kio Ave 1, #01-681, S567226",64541980,567226,"567226, Singapore",1.366840535,103.8398088
FAMILY HEALTHCARE CLINIC & SURGERY,"151 Serangoon North Ave 2, #01-35, S550151",62889557,550151,"550151, Singapore",1.369422369,103.8743512
FAMILY HEALTHCARE CLINIC & SURGERY PTE LTD,"523 Hougang Ave 6, #01-119, S530523",63871120,530523,"530523, Singapore",1.373720912,103.890707
FAMILY MEDICAL CLINIC PTE LTD,"280 Bt Batok East Ave 3, #01-317, S650280",65676775,650280,"650280, Singapore",1.347701477,103.7570446
FAMILY MEDICARE CLINIC & SURGERY,"721 Ang Mo Kio Ave 8, #01-2815, S560721",64566582,560721,"560721, Singapore",1.372349848,103.8478995
FAMILY MEDICINE CLINIC,"58 Marine Terrace, #01-65, S440058",64491606,440058,"440058, Singapore",1.306117813,103.914026
FAMILY MEDICINE CLINIC CHINATOWN,"133 New Bridge Road, #02-09, Chinatown Point, S059413",62255155,59413,"059413, Singapore",1.285260737,103.8449429
FAMILYCARE CLINIC & SURGERY,"85C Toa Payoh Lorong 4, #01-380, S313085",62509033,313085,"313085, Singapore",1.336285709,103.8474794
FERNVALE FAMILY CLINIC,"405C Fernvale Lane, #01-101, S793405",68756182,793405,"793405, Singapore",1.389194667,103.8734374
FINEST HEALTH MEDICAL CENTRE,"19 Lorong 7 Toa Payoh, #01-268, Kim Keat Palm, S310019",62640852,310019,"310019, Singapore",1.335282286,103.8565042
FIRST CARE FAMILY CLINIC & SURGERY,"253 Jurong East St 24, #01-257, S600253",64252350,600253,"600253, Singapore",1.343188358,103.7367858
FIRST LIGHT FAMILY CLINIC & SURGERY,"272 Bukit Batok East Avenue 4, #01-72, S650272",65603930,650272,"650272, Singapore",1.34885036,103.7579033
FIRST MEDICAL CENTRE (YISHUN) PTE LTD,"110 Yishun Ring Rd, #01-399, S760110",67591485,760110,"760110, Singapore",1.433761603,103.8290061
FIRST MEDICAL CENTRE PTE LTD,"169 Stirling Road, #01-1165, S140169",64768588,140169,"140169, Singapore",1.290434865,103.8031059
FIRST MEDICAL CLINIC & SURGERY,"167 Woodlands St 11, #01-11, S730167",63680111,730167,"730167, Singapore",1.433593706,103.7758841
FOCUS MEDICAL CENTRE,"137 Teck Whye Lane, #01-329, Teck Whye Shopping Centre, S680137",67692822,680137,"680137, Singapore",1.380047726,103.7524646
FONG CLINIC,"162 Mei Ling St, #01-361, S140162",64745993,140162,"140162, Singapore",1.292254671,103.802857
FRASER MEDICAL CENTRE,"78A Telok Blangah St 32, #01-07, S101078",62733603,101078,"101078, Singapore",1.27338252,103.8089348
FRIENDSHIP CLINIC & SURGERY,"1 Jalan Bukit Merah, #01-4524, S150001",62726628,150001,"150001, Singapore",1.28645354,103.8082424
FRONTIER FAMILY MEDICINE CLINIC,"3151 Commonwealth Avenue West, #04-01, Cityvibe, S129581",67788362,129581,"129581, Singapore",1.314231317,103.7650976
FRONTIER MEDICAL ASSOCIATES,"982 Buangkok Crescent, #01-03, S530982",63152913,530982,"530982, Singapore",1.380850355,103.8793091
FRONTIER MEDICAL ASSOCIATES,"163 Ang Mo Kio Ave 4, #01-426, S560163",64532571,560163,"560163, Singapore",1.373551792,103.838169
FRONTIER MEDICAL ASSOCIATES,"678D Jurong West Street 64, #01-347, S644678",68622340,644678,"644678, Singapore",1.344864896,103.7033954
FRONTIER MEDICAL ASSOCIATES,"440 Bukit Batok West Avenue 8, #01-05, S650440",63370061,650440,"650440, Singapore",1.355723081,103.7393031
FRONTIER MEDICAL ASSOCIATES,"691 Woodlands Drive 73, #01-04, S730691",63141098,730691,"730691, Singapore",1.440629924,103.8061981
FRONTIER MEDICAL ASSOCIATES,"899C Woodlands Dr 50, #01-296, S732899",63663631,732899,"732899, Singapore",1.436569856,103.7952613
FRONTIER MEDICAL ASSOCIATES,"105 Canberra Street, #01-11, S750105",62665080,750105,"750105, Singapore",1.448864022,103.8323929
FRONTIER MEDICAL ASSOCIATES,"654 Yishun Ave 4, #01-437, S760654",67587536,760654,"760654, Singapore",1.423053464,103.8404103
FRONTIER MEDICAL ASSOCIATES,"304 Ubi Avenue 1, #01-87, S400304",67460909,400304,"400304, Singapore",1.329552569,103.9012286
FRONTIER MEDICAL ASSOCIATES,"451 Bukit Batok West Ave 6, #01-07, S650451",67450875,650451,"650451, Singapore",1.353038249,103.7439484
FRONTIER PEOPLE'S CLINIC,"123 Bedok North Street 2, #01-152, S460123",64430261,460123,"460123, Singapore",1.329198687,103.9373433
FULLERTON HEALTH @ DRS TRYTHALL HOY DAVIES,"391B Orchard Road, #25-01/07/08, Ngee Ann City Tower B, S238874",66643801,238874,"238874, Singapore",1.302424172,103.8346761
FULLERTON HEALTHCARE @ ARC,"460 Alexandra Road, #02-18, S119963",63333636,119963,"119963, Singapore",1.273678698,103.8013636
FULLERTON HEALTHCARE @ DRS TRYTHALL HOY DAVIES,"1 Jurong West Central 2, #B1A-19B, Jurong Point Shopping Centre, S648886",63333636,648886,"648886, Singapore",1.339738866,103.7067896
FULLERTON HEALTHCARE @ GETHIN-JONES,"78 Shenton Way, #04-01, S079120",62778900,79120,"079120, Singapore",1.273068029,103.8449687
FULLERTON HEALTHCARE @ METROPOLIS,"9 North Buona Vista Drive, #01-03, The Metropolis, S138588",63395938,138588,"138588, Singapore",1.306307846,103.7913118
G & H MEDICAL CLINIC PTE LTD,"106 Yishun Ring Road, #01-173, S760106",67586322,760106,"760106, Singapore",1.431478614,103.827452
GARDEN CLINIC,"304 Serangoon Ave 2, #01-04, S550304",63821878,550304,"550304, Singapore",1.353626098,103.8677055
GEYLANG POLYCLINIC,"21 Geylang East Central, S389707",65476456,389707,"389707, Singapore",1.319482268,103.8872342
GREEN CROSS MEDICAL CENTRE,"824 Tampines St 81, #01-30, S520824",67813011,520824,"520824, Singapore",1.349037435,103.9327149
GREENFOREST FAMILY CLINIC,"878C Tampines Avenue 8, #01-71, S523878",67850157,523878,"523878, Singapore",1.351264113,103.9293638
GREENLIFE CLINIC & SURGERY,"11 Canberra Rd, #02-01, Sembawang Mrt Station, S759775",67562676,759775,"759775, Singapore",1.449026685,103.8201395
GREENLIFE CLINIC & SURGERY,"624 Choa Chu Kang Street 62, #01-230, Yew Tee Shopping Centre, S680624",67606087,680624,"680624, Singapore",1.3977814,103.746974
GREENLINK MEDICAL CLINIC,"807 Yishun Ring Road, #01-4213, S760807",67552238,760807,"760807, Singapore",1.416498758,103.8315784
GSH CLINIC & SURGERY PTE. LTD,"9 Yio Chu Kang Road, #01-40, S545523",62605942,545523,"545523, Singapore",1.354634549,103.8768971
H S LEE CLINIC & SURGERY,"173 Yishun Ave 7, #01-823, S760173",67550630,760173,"760173, Singapore",1.437057244,103.8311207
HAMID FAMILY CLINIC & SURGERY,"156 Pasir Ris St 13, #01-35, S510156",65848804,510156,"510156, Singapore",1.363999509,103.9630127
HARMONY FAMILY CLINIC,"235 Choa Chu Kang Central, #B1-25, S680235",67623979,680235,"680235, Singapore",1.379756644,103.7487492
HAVELOCK FAMILY CLINIC,"22 Havelock Rd, #01-709, S160022",62724242,160022,"160022, Singapore",1.288746037,103.8288242
HEALTH FIRST FAMILY CLINIC,"26 Jalan Membina, #01-06, S161026",67932833,161026,"161026, Singapore",1.282634376,103.8255958
HEALTH PARTNERS FAMILY CLINIC,"1 Bt Batok Central Link, #01-37, West Mall, S658713",68989031,658713,"658713, Singapore",1.350097148,103.7492139
HEALTH PARTNERS MEDICAL CLINIC,"100 Cecil Street, #09-01, The Globe, S069532",62255036,69532,"069532, Singapore",1.281130334,103.8489634
HEALTH PARTNERS MEDICAL CLINIC (SIGLAP),"23 Upper East Coast Road, Crescendo Building, S455289",64433316,455289,"455289, Singapore",1.313126779,103.9263296
HEALTH PARTNERSHIP MEDICAL CENTRE,"109 Bukit Purmei Rd, #01-145, S090109",62782860,90109,"090109, Singapore",1.273929399,103.8253108
HEALTHBRIDGE FAMILY CLINIC,"615A Edgefield Plains, #01-327, Punggol Spring, S821615",64897495,821615,"821615, Singapore",1.403860564,103.909541
HEALTHCARE AMK MEDICAL CLINIC,"157 Ang Mo Kio Avenue 4, #01-578, S560157",64511528,560157,"560157, Singapore",1.375305621,103.8393951
HEALTHCARE FAMILY CLINIC & SURGERY,"403 Sin Ming Ave, #01-311, S570403",64542373,570403,"570403, Singapore",1.362870322,103.833604
HEALTHCARE HOUGANG MEDICAL CLINIC,"311 Hougang Avenue 5, #01-191, S530311",62881426,530311,"530311, Singapore",1.365670731,103.8948582
HEALTHLIFE FAMILY CLINIC,"296A Bukit Batok Street 22, #01-64, Skyline Ii @ Bukit Batok, S651296",69048680,651296,"651296, Singapore",1.344093582,103.7464092
HEALTHLINE FAMILY CLINIC & SURGERY PTE. LTD.,"25A Chai Chee Road, #01-467, S461025",64463260,461025,"461025, Singapore",1.323290228,103.9241518
HEALTHLINK (AMK) MEDICAL CENTRE,"108 Ang Mo Kio Ave 4, #01-86, S560108",64571636,560108,"560108, Singapore",1.370966352,103.8382019
HEALTHLINK FAMILY CLINIC & SURGERY,"21 Ghim Moh Road, #01-187, S270021",64689808,270021,"270021, Singapore",1.310103026,103.788546
HEALTHLINK MEDICAL CLINIC & SURGERY,"5 Upper Aljunied Lane, #01-46, S360005",62890885,360005,"360005, Singapore",1.33372866,103.8798985
HEALTHMARK CLINIC (PASIR RIS),"735 Pasir Ris Street 72, #01-314, Pasir Ris West Plaza, S510735",65827823,510735,"510735, Singapore",1.379783769,103.9366301
HEALTHMARK FAMILY CLINIC (COMPASSVALE),"263 Compassvale Street, #01-02/03, S540263",68810075,540263,"540263, Singapore",1.394848165,103.8960423
HEALTHMARK FAMILY MEDICINE CLINIC,"601 Choa Chu Kang St 62, #01-09, S680601",67672281,680601,"680601, Singapore",1.396933631,103.7449217
HEALTHMARK MEDICAL CLINIC,"639 Punggol Drive, #01-06, S820639",68756696,820639,"820639, Singapore",1.399446151,103.9160547
HEALTHMARK PIONEER MALL CLINIC,"638 Jurong West Street 61, #02-08, Pioneer Mall, S640638",68613100,640638,"640638, Singapore",1.341673319,103.6972445
HEALTHMATTERS - THE FAMILY PRACTICE,"1 Pasir Ris Close, #02-309/310, Downtown East, S519599",65557555,519599,"519599, Singapore",1.376698068,103.9551412
HEALTHMED FAMILY CLINIC (BUKIT PANJANG),"416 Saujana Road, #01-50, S670416",67604321,670416,"670416, Singapore",1.383196867,103.7684541
HEALTHPLUS CLINIC & SURGERY,"631 Bedok Reservoir Road, #01-898, S470631",64460529,470631,"470631, Singapore",1.332958733,103.9149418
HEALTHPLUS FAMILY CLINIC & SURGERY,"78A Telok Blangah St 32, #01-02, S101078",62733327,101078,"101078, Singapore",1.27338252,103.8089348
HEALTHPOINT FAMILY CLINIC & SURGERY PTE LTD,"48 Tanglin Halt Rd, #01-337, S142048",64740408,142048,"142048, Singapore",1.300789009,103.7976262
HEALTHSPRINGS MEDICAL ASSOCIATES,"541 Orchard Rd, #10-02, S238881",67345260,238881,"238881, Singapore",1.30510759,103.8307279
HEALTHSPRINGS MEDICAL CLINIC,"524A Jelapang Road, #02-01/02, Greenridge Shopping Centre, S671524",68926681,671524,"671524, Singapore",1.385295565,103.7661705
HEALTHWAY MEDICAL,"6A Shenton Way, #02-15, Downtown Gallery, S068815",62202383,68815,"068815, Singapore",1.277828847,103.8489193
HEALTHWAY MEDICAL,"443 Clementi Avenue 3, #01-63, S120443",68722214,120443,"120443, Singapore",1.314210516,103.7640104
HEALTHWAY MEDICAL,"727 Clementi West Street 2, #01-258, S120727",67745901,120727,"120727, Singapore",1.304345432,103.7633937
HEALTHWAY MEDICAL,"705 Serangoon Road, #01-06, Kwong Wai Shiu Hospital, S328127",62914331,328127,"328127, Singapore",1.317319585,103.859332
HEALTHWAY MEDICAL,"110 Lengkong Tiga, #01-231, S410110",67494062,410110,"410110, Singapore",1.323878365,103.910715
HEALTHWAY MEDICAL,"503 Tampines Central 1, #01-311, S520503",67890383,520503,"520503, Singapore",1.355805735,103.9451089
HEALTHWAY MEDICAL,"710 Tampines St 71, #01-134, S520710",62609081,520710,"520710, Singapore",1.358924314,103.9376447
HEALTHWAY MEDICAL,"108 Hougang Ave 1, #01-1299, S530108",62849692,530108,"530108, Singapore",1.352772196,103.8900986
HEALTHWAY MEDICAL,"90 Hougang Avenue 10, #04-06, Hougang Mall, S538766",63437620,538766,"538766, Singapore",1.372483087,103.8937881
HEALTHWAY MEDICAL,"267 Compassvale Link, #01-04, S540267",63438770,540267,"540267, Singapore",1.383744417,103.8970466
HEALTHWAY MEDICAL,"308 Anchorvale Road, #01-03, Multi Storey Car Park, S540308",63123106,540308,"540308, Singapore",1.389558485,103.8864267
HEALTHWAY MEDICAL,"330 Ang Mo Kio Ave 1, #01-1803, S560330",65530100,560330,"560330, Singapore",1.362431864,103.8510307
HEALTHWAY MEDICAL,"452 Ang Mo Kio Ave 10, #01-1787, S560452",64516558,560452,"560452, Singapore",1.368897511,103.8562008
HEALTHWAY MEDICAL,"690 Jurong West Central 1, #01-193, S640690",67891812,640690,"640690, Singapore",1.341186885,103.70671
HEALTHWAY MEDICAL,"153 Bukit Batok St 11, #01-284, S650153",65679881,650153,"650153, Singapore",1.347479478,103.7442765
HEALTHWAY MEDICAL,"446 Bukit Batok West Avenue 8, #01-03, S650446",62565980,650446,"650446, Singapore",1.350170851,103.7390846
HEALTHWAY MEDICAL,"717 Woodlands Drive 70, #01-114, S730717",63647450,730717,"730717, Singapore",1.44087379,103.7994942
HEALTHWAY MEDICAL,"30 Sembawang Drive, #03-20, Sun Plaza, S757713",65551445,757713,"757713, Singapore",1.448226538,103.8194621
HEALTHWAY MEDICAL,"461 Yishun Avenue 6, #01-05, S760461",62354824,760461,"760461, Singapore",1.428414719,103.8499728
HEALTHWAY MEDICAL,"168 Punggol Field, #02-07A, S820168",63153493,820168,"820168, Singapore",1.394256298,103.9130435
HEALTHWAY MEDICAL,"10 Sinaran Drive, #09-36, Novena Medical Center, S307506",63528696,307506,"307506, Singapore",1.320441031,103.8441926
HEALTHWAY MEDICAL,"177 Toa Payoh Central, #01-130, S310177",62553773,310177,"310177, Singapore",1.333902459,103.8488447
HEALTHWAY MEDICAL,"101 Towner Road, #01-236, S322101",62977592,322101,"322101, Singapore",1.31942539,103.8610875
HEALTHWAY MEDICAL,"218 Bedok North St 1, #01-17, S460218",64410236,460218,"460218, Singapore",1.327356574,103.9337678
HEALTHWAY MEDICAL,"625 Elias Rd, #01-322, Elias Mall, S510625",65846822,510625,"510625, Singapore",1.37860239,103.9419782
HEALTHWAY MEDICAL,"201D Tampines Street 21, #01-1143, S524201",62608801,524201,"524201, Singapore",1.352141948,103.9540103
HEALTHWAY MEDICAL,"118 Rivervale Drive, #02-17, Rivervale Plaza, S540118",68812689,540118,"540118, Singapore",1.385371516,103.9018496
HEALTHWAY MEDICAL,"721 Ang Mo Kio Ave 8, #01-2801, S560721",64554629,560721,"560721, Singapore",1.372349848,103.8478995
HEALTHWAY MEDICAL,"960 Jurong West St 92, #01-166, S640960",67915680,640960,"640960, Singapore",1.341385312,103.6914596
HEALTHWAY MEDICAL,"445 Fajar Road, #02-534, Fajar Shopping Centre, S670445",67630600,670445,"670445, Singapore",1.383574699,103.7708685
HEALTHWAY MEDICAL,"475 Choa Chu Kang Ave 3, #02-03, Sunshine Place, S680475",68926330,680475,"680475, Singapore",1.377971933,103.7390421
HEALTHWAY MEDICAL,"888 Woodlands Dr 50, #02-737, 888 Plaza, S730888",63649661,730888,"730888, Singapore",1.437448497,103.7951515
HEALTHWAY MEDICAL,"417 Yishun Ave 11, #01-321, S760417",67537626,760417,"760417, Singapore",1.424420958,103.8462845
HEALTHWAY MEDICAL CLINIC,"3 Gateway Drive, #04-32, Westgate, S608532",65606127,608532,"608532, Singapore",1.33415752,103.7427665
HEALTHWAY MEDICAL CLINIC,"534 Choa Chu Kang St 51, #01-37, Limbang Shopping Centre, S680534",67622555,680534,"680534, Singapore",1.392242406,103.743191
HEALTHWAY MEDICAL CLINIC,"748 Yishun Street 72, #01-230, S760748",68537101,760748,"760748, Singapore",1.427518982,103.8334505
HEALTHWAY MEDICAL CLINIC,"101 Yishun Avenue 5, #01-15, S760101",67551345,760101,"760101, Singapore",1.430535899,103.8276686
HEALTHWERKZ MEDICAL CENTRE (CCK),"225 Choa Chu Kang Central, #01-199, S680225",67662827,680225,"680225, Singapore",1.381090653,103.7448896
HEALTHWISE MEDICAL CLINIC & SURGERY,"41 Jalan Tiga, #01-07, S390041",62412889,390041,"390041, Singapore",1.307827368,103.8847638
HEARTLAND FAMILY CLINIC,"333C Yishun Street 31, #01-167, S763333",62500655,763333,"763333, Singapore",1.431889988,103.8457902
HEARTLANDHEALTH,"114 Jurong East Street 13, #01-406, S600114",65608004,600114,"600114, Singapore",1.339213865,103.73461
HEARTLANDHEALTH,"66 Lorong 4 Toa Payoh, #01-315, S310066",62528223,310066,"310066, Singapore",1.335013326,103.8517784
HEARTLANDHEALTH,"164 Bukit Batok Street 11, #01-152, S650164",68732458,650164,"650164, Singapore",1.347716975,103.7428317
HEARTLANDHEALTH,"463 Jurong West Street 41, #01-564, S640463",68732420,640463,"640463, Singapore",1.350571875,103.7232393
HEARTLANDHEALTH,"19 Lorong 7 Toa Payoh, #01-272, S310019",62523858,310019,"310019, Singapore",1.335282286,103.8565042
HEARTLANDHEALTH,"88 Curcuit Road, #01-965, S370088",65478840,370088,"370088, Singapore",1.32354066,103.8858517
HEARTLANDHEALTH,"730 Tampines Street 71, #01-51, S520730",65887833,520730,"520730, Singapore",1.356706065,103.9334992
HEARTLANDHEALTH,"86 Redhill Close, #01-600, S150086",68733165,150086,"150086, Singapore",1.286920062,103.8186736
HEARTLANDHEALTH,"18 Bedok South Road, #01-69, S460018",62418812,460018,"460018, Singapore",1.320527715,103.9347643
HILL SPRING MEDICAL,"12 Jalan Leban, Sembawang Hills Estate, S577552",64563200,577552,"577552, Singapore",1.371552756,103.8291723
HISEMAINN MEDICAL CLINIC (BUKIT BATOK),"289E Bukit Batok St 25, #01-160, S654289",65691375,654289,"654289, Singapore",1.344210302,103.7592055
HISEMAINN MEDICAL CLINIC (JURONG WEST),"276 Jurong West Street 25, #01-06, S640276",67958990,640276,"640276, Singapore",1.353609727,103.7037307
HISEMAINN MEDICAL CLINIC (SIMS PLACE),"48 Sims Place, #01-167,S380048",67424413,380048,"380048, Singapore",1.317756065,103.8794408
HK FAMILY CLINIC & SURGERY PTE LTD,"410 Ang Mo Kio Ave 10, #01-817, S560410",65528757,560410,"560410, Singapore",1.36271542,103.854645
HL CLINIC PTE LTD,"9 Telok Blangah Crescent, #01-135, S90009",62721986,90009,"090009, Singapore",1.277408423,103.8194086
HL FAMILY CLINIC & SURGERY PTE LTD,"111 Jalan Bukit Merah, #01-1704, S160111",62785966,160111,"160111, Singapore",1.280321136,103.8261859
HL FAMILY CLINIC & SURGERY(BEDOK) PTE LTD,"89 Bedok North Street 4, #01-83, S460089",64420494,460089,"460089, Singapore",1.332956837,103.9382209
HO MEDICAL CENTRE PTE LTD,"352 Clementi Avenue 2, #01-115, S120352",64748923,120352,"120352, Singapore",1.31427266,103.7713609
HO TONG CLINIC,"35 Circuit Road, #01-448, S370035",67456517,370035,"370035, Singapore",1.329158997,103.8860103
HONG ASSOCIATES CLINIC,"111 Jln Bukit Merah, #01-1682, S160111",62702233,160111,"160111, Singapore",1.280321136,103.8261859
HONG FAMILY CLINIC,"282 Tampines St 22, #01-300, S520282",67843300,520282,"520282, Singapore",1.347754099,103.9524368
HONG'S CLINIC PEOPLE'S PARK CENTRE,"101 Upper Cross Street, #B1-37, People'S Park Centre, S58357",65352169,58357,"058357, Singapore",1.2857701,103.8439801
HOPE FAMILY CLINIC AND SURGERY,"883 Woodlands St 82, #02-466A, Woodlands North Plaza, S730883",63691328,730883,"730883, Singapore",1.442845701,103.7908258
HORIZON MEDICAL CENTRE,"200 Upper Thomson Road, #01-11, Thomson Imperial Court, S574424",62502692,574424,"574424, Singapore",1.351769141,103.8360677
HOUGANG POLYCLINIC,"89 Hougang Ave 4, S538829",62756443,538829,"538829, Singapore",1.369906839,103.8890015
HUAN CLINIC,"51 Chin Swee Road, #03-111, S160051",65357628,160051,"160051, Singapore",1.287403008,103.8420298
HUI CLINIC + SURGERY,"157 Ang Mo Kio Ave 4, #01-566, S560157",64588596,560157,"560157, Singapore",1.375305621,103.8393951
I.MEDICAL & I.AESTHETICS,"1 Northpoint Drive, #B1-176, Northpoint City, S768019",62541622,768019,"768019, Singapore",1.428754606,103.8363245
ICARE MEDICAL AND WELLNESS CLINIC,"22 Havelock Road, #01-701, S160022",62746858,160022,"160022, Singapore",1.288746037,103.8288242
ICON MEDICAL CLINIC,"517 Jurong West St 52, #01-101, S640517",65600521,640517,"640517, Singapore",1.345719199,103.7195145
IDOC CLINIC,"21 Hougang Street 51, #01-43, S538719",69093485,538719,"538719, Singapore",1.379317835,103.8878471
IDOC CLINIC (HONG KAH) PTE LTD,"502 Jurong West Avenue 1, #01-813, S640502",69099516,640502,"640502, Singapore",1.350501277,103.7183347
I-HEALTH MEDICAL CLINIC,"30 Bendemeer Road, #01-883, S330030",62911371,330030,"330030, Singapore",1.319303367,103.8640498
INTEMEDICAL 24 HOUR CLINIC,"525 Ang Mo Kio Avenue 10, #01-2407",69192998,560525,"560525, Singapore",1.372626669,103.8539767
ISLAND FAMILY CLINIC (ANCHORVALE),"338 Anchorvale Crescent, #01-02, S540338",62810174,540338,"540338, Singapore",1.39922857,103.8896539
ISLAND FAMILY CLINIC (BEDOK),"763 Bedok Reservoir View, #01-283, S470763",62435871,470763,"470763, Singapore",1.336072095,103.9348306
ISLAND FAMILY CLINIC (BUKIT BATOK),"447 Bukit Batok West Avenue 9, #01-05, S650447",62501530,650447,"650447, Singapore",1.352696139,103.7398099
ISLAND FAMILY CLINIC (FERNVALE),"473A Fernvale Street, #01-03, S791473",64813740,791473,"791473, Singapore",1.397859749,103.8812328
ISLAND FAMILY CLINIC (KEAT HONG),"803 Keat Hong Close, #01-04, S680803",68910847,680803,"680803, Singapore",1.374155334,103.7427596
ISLAND FAMILY CLINIC (SENGKANG),"279 Sengkang East Avenue, #01-05, S540279",63842759,540279,"540279, Singapore",1.386218355,103.8929955
ISLAND MEDICAL CLINIC,"55 Newton Road, #02-07, Revenue House, S307987",62550900,307987,"307987, Singapore",1.319600516,103.8420587
JADE MEDICAL CLINIC PTE LTD,"8 Eu Tong Sen Street, #13-99, The Central Office Tower 1, S059818",62259813,59818,"059818, Singapore",1.2889562,103.8467962
JAPAN CLINIC AND SURGERY,"802 French Rd, #01-55, S200802",62984517,200802,"200802, Singapore",1.307645824,103.8602692
JIREH FAMILY CLINIC,"883 Woodlands Street 82, #02-468A, S730883",63660373,730883,"730883, Singapore",1.442845701,103.7908258
JJ CLINIC & SURGERY,"107 Ang Mo Kio Avenue 4, #01-150, S560107",64595594,560107,"560107, Singapore",1.371384001,103.8373814
JOASH FAMILY CLINIC & SURGERY,"1030 Upper Serangoon Road, S534767",62827371,534767,"534767, Singapore",1.362987375,103.8885318
JO-LIN FAMILY CLINIC & SURGERY,"533 Choa Chu Kang St 51, #01-29, Limbang Shopping Centre, S680533",67606014,680533,"680533, Singapore",1.392073887,103.7430996
JOY CLINIC AND SURGERY,"844 Yishun St 81, #01-164, S760844",67530702,760844,"760844, Singapore",1.415625173,103.8354465
JOY FAMILY CLINIC,"703 Bedok Reservoir Road, #01-3506, S470703",64422483,470703,"470703, Singapore",1.337165074,103.9198931
JOYHEALTH MEDICAL CLINIC & SURGERY,"825 Tampines Street 81, #01-50, S520825",67811868,520825,"520825, Singapore",1.349437509,103.9327877
JOYSPRING FAMILY CLINIC,"133 Ang Mo Kio Ave 3, #01-1643, S560133",64551560,560133,"560133, Singapore",1.371139686,103.8426442
JUBILEE FAMILY PHYSICIANS,"258 Pasir Ris St 21, #02-16, S510258",65821883,510258,"510258, Singapore",1.367066342,103.9646356
JURONG EAST CLINIC,"114 Jurong East St 13, #01-406, S600114",65608004,600114,"600114, Singapore",1.339213865,103.73461
JURONG POLYCLINIC,"190 Jurong East Ave 1, S609788",63553000,609788,"609788, Singapore",1.349719797,103.7307179
JW CORPORATION CLINIC PTE LTD,"507 Jurong West Street 52, #01-156, S640507",65646745,640507,"640507, Singapore",1.349027089,103.7184299
K L TAY CLINIC & SURGERY,"632 Bedok Reservoir Rd, #01-822, S470632",64481630,470632,"470632, Singapore",1.332050526,103.9141462
K N CHIN & ASSOCIATES PTE LTD,"24 Raffles Place, #02-18, Clifford Centre, S048621",65389533,48621,"048621, Singapore",1.283856984,103.8521282
K N CHIN & ASSOCIATES PTE LTD MEDICAL PRACTICE,"3 Temasek Boulevard, #02-400, Suntec City Mall, S38983",63372522,38983,"038983, Singapore",1.295711525,103.8585526
K. B. TAN CLINIC & LASER SURGERY,"625 Elias Rd, #01-310, Elias Mall, S510625",65839091,510625,"510625, Singapore",1.37860239,103.9419782
K2 MEDICAL CLINIC,"248 Simei Street 3, #01-128, Multi Storey Car Park, S520248",65881322,520248,"520248, Singapore",1.343778387,103.9533823
KAI MEDICAL CLINIC,"5 Tampines Street 32, #02-05, Tampines Mart, S529284",67891112,529284,"529284, Singapore",1.354369816,103.9599064
KANG AN CLINIC PTE LTD,"644 Bt Batok Central, #01-70, S650644",65664856,650644,"650644, Singapore",1.348666809,103.7517903
KAO & TAN FAMILY MEDICAL CENTRE & SURGERY PTE LTD,"18 Jalan Membina, #02-03, Tiong Bahru Court, S164018",62727880,164018,"164018, Singapore",1.28567232,103.8267843
KARRI FAMILY CLINIC,"866A Tampines St 83, #03-05, Tampines Central Community Complex, S521866",67850311,521866,"521866, Singapore",1.355393063,103.9344293
KATONG FAMILY CLINIC PTE LTD,"263 Tanjong Katong Road, #01-03, Suites@ Katong, S437050",62034192,437050,"437050, Singapore",1.307802767,103.8955513
KCS MEDICAL CENTRE PTE LTD,"515 Bedok North Ave 2, #01-205, S460515",64438322,460515,"460515, Singapore",1.331866565,103.9299602
KEAT HONG FAMILY MEDICINE CLINIC,"2 Choa Chu Kang Loop, #03-02, Keat Hong Community Club, S689687",67690750,689687,"689687, Singapore",1.384065169,103.7449238
KENNETH LOO FAMILY CLINIC,"152 Bishan St 11, #01-215, S570152",62503660,570152,"570152, Singapore",1.345657203,103.8546414
KENNETH TAN MEDICAL CLINIC,"658 Punggol East, #01-07, S820658",63124589,820658,"820658, Singapore",1.399904207,103.9193527
KEPPEL MEDICAL GROUP,"9 Telok Blangah Crescent, #01-139, S90009",62700846,90009,"090009, Singapore",1.277408423,103.8194086
KHOO CLINIC & SURGERY,"998 Upper Serangoon Rd, S534737",62880457,534737,"534737, Singapore",1.362284936,103.8877878
KI MEDICAL CLINIC,"416 Ang Mo Kio Avenue 10, #01-975, S560416",64554475,560416,"560416, Singapore",1.364541709,103.8551037
KL NG MEDICAL CLINIC PTE LTD,"1 Jalan Bukit Merah, #01-4530, S150001",62712554,150001,"150001, Singapore",1.28645354,103.8082424
KO FAMILY CLINIC,"18 Upper Boon Keng Road, #01-1133, S380018",68421403,380018,"380018, Singapore",1.314777105,103.8722355
L & H POLYCLINIC AND SURGERY,"59 Lengkok Bahru, #01-543, S150059",64744544,150059,"150059, Singapore",1.288798006,103.8143521
L & L FAMILY MEDICINE CLINIC,"6 Sin Ming Road, #01-07, Sin Ming Plaza Tower 2, S575585",64588001,575585,"575585, Singapore",1.352863734,103.8364072
LAI MEDICAL CLINIC PTE LTD,"213 Bt Batok St 21, #01-209, S650213",65632935,650213,"650213, Singapore",1.346818455,103.7524969
LAKESIDE FAMILY MEDICINE CLINIC,"518A Jurong West Street 52, #01-02, S641518",62626434,641518,"641518, Singapore",1.345138286,103.7188576
LC CLINIC MEDICAL SURGERY AESTHETICS,"446 Clementi Avenue 3, #01-191, S120446",64640932,120446,"120446, Singapore",1.312513057,103.7649278
LEE & KOH FAMILY CLINIC,"359 Bukit Batok St 31, #01-389, S650359",66653323,650359,"650359, Singapore",1.361343704,103.7512307
LEE & TAN FAMILY CLINIC AND SURGERY,"72 Circuit Rd, #01-03, S370072",67456877,370072,"370072, Singapore",1.324547611,103.8879439
LEE CLINIC,"123 Bedok North St 2, #01-156, S460123",62418827,460123,"460123, Singapore",1.329198687,103.9373433
LEE FAMILY CLINIC PTE. LTD.,"762 Jurong West Street 75, #02-262, Gek Poh Shopping Centre, S640762",67940217,640762,"640762, Singapore",1.348741647,103.6977396
LEONG CLINIC,"63B Lengkok Bahru, #01-366, S152063",64760572,152063,"152063, Singapore",1.289075068,103.8153184
LER CLINIC & SURGERY,"835 Tampines St 83, #01-10, S520835",67886279,520835,"520835, Singapore",1.351138337,103.9338631
LIAN CLINIC,"18 Marsiling Lane, #01-269, S730018",62697435,730018,"730018, Singapore",1.443417007,103.7778612
LIANG CLINIC,"55 Siglap Road, #B1-15/16, Siglap Centre, S455871",62415944,455871,"455871, Singapore",1.312605656,103.9231681
LIFE FAMILY CLINIC,"713 Ang Mo Kio Ave 6, #01-4052, S560713",64563535,560713,"560713, Singapore",1.371458093,103.8465163
LIFE FAMILY CLINIC,"10 Choa Chu Kang Avenue 4, #01-28/29, Choa Chu Kang Mrt Station, S689810",67669119,689810,"689810, Singapore",1.385672721,103.7441391
LIFECARE FAMILY CLINIC,"524A Jelapang Road, #02-15, Greenridge Shopping Centre, S671524",67698588,671524,"671524, Singapore",1.385295565,103.7661705
LIFECARE MEDICAL CENTRE,"36 Circuit Road, #01-416, S370036",67461533,370036,"370036, Singapore",1.329059635,103.8869253
LIFELINE BUKIT PANJANG MEDICAL CLINIC,"103 Gangsa Road, #01-37, S670103",67605788,670103,"670103, Singapore",1.378670708,103.7685384
LIFELINE MEDICAL GROUP,"118 Rivervale Drive, #02-18, Rivervale Plaza, S540118",68812392,540118,"540118, Singapore",1.385371516,103.9018496
LIFELINE PUNGGOL MEDICAL CLINIC PTE LTD,"198 Punggol Field, #02-03, S820198",63155428,820198,"820198, Singapore",1.399462957,103.9064024
LIFELINE YISHUN RING MEDICAL CLINIC,"846 Yishun Ring Road, #01-3615, S760846",67522017,760846,"760846, Singapore",1.416786343,103.8346418
LIFE-LINK CLINIC & SURGERY,"446 Pasir Ris Dr 6, #01-120, S510446",65834402,510446,"510446, Singapore",1.370311571,103.9575656
LIFELINK SN CLINIC & SURGERY,"153 Serangoon North Avenue 1, #01-534, S550153",62813977,550153,"550153, Singapore",1.369950992,103.8723123
LILY AW PASIR RIS FAMILY CLINIC & SURGERY,"446 Pasir Ris Dr 6, #01-116, S510446",65822122,510446,"510446, Singapore",1.370311571,103.9575656
LILY NEO CLINIC PTE LTD,"101 Irrawaddy Road, #21-09, Royal Square Medical Suites @ Novena, S329565",64726226,329565,"329565, Singapore",1.320571566,103.8432193
LIM CLINIC,"295 Changi Road, S419773",67426335,419773,"419773, Singapore",1.318198859,103.9071172
LIM CLINIC,"446 Ang Mo Kio Ave10, #01-1663, S560446",64549172,560446,"560446, Singapore",1.367760947,103.8553572
LIM CLINIC & SURGERY,"20 Chai Chee Road, #01-418/420, S461020",62412211,461020,"461020, Singapore",1.326272712,103.9228853
LIM CLINIC & SURGERY,"109 Toa Payoh Lor 1, #01-312, S310109",62527473,310109,"310109, Singapore",1.341237271,103.8462025
LIM COUNTRY CLINIC,"208 Hougang St 21, #01-207, S530208",62868047,530208,"530208, Singapore",1.3586968,103.8866361
LIN & SONS CLINIC & SURGERY PTE LTD,"18 Teck Whye Lane, #01-97, S680018",67690554,680018,"680018, Singapore",1.378297688,103.7540714
LITTLE CROSS FAMILY CLINIC PTE LTD,"929 Tampines St 91, #01-445, S520929",65440040,520929,"520929, Singapore",1.346391724,103.939614
LIVEWELL MEDICAL FAMILY CLINIC,"20 Ah Hood Road, #01-08, Zhongshan Mall, S329984",69099888,329984,"329984, Singapore",1.327084855,103.8464765
LO & LEE CLINIC & SURGERY,"134 Lorong Ah Soo, #01-462, S530134",62855688,530134,"530134, Singapore",1.350464683,103.8865094
LONDON (MH) CLINIC & SURGERY,"104 Hougang Ave 1, #01-1123, S530104",62807262,530104,"530104, Singapore",1.354784387,103.8903185
LOW & LEE CLINIC & SURGERY,"55 Chai Chee Dr, #01-202, S460055",64451175,460055,"460055, Singapore",1.326848393,103.9190156
LOW MEDICAL CLINIC,"67 Kallang Bahru, #01-447, S330067",62950805,330067,"330067, Singapore",1.321394464,103.8693362
LUSUMU FAMILY CLINIC,"530 Bedok North St 3, #01-638, S460530",64459910,460530,"460530, Singapore",1.33371332,103.9270203
M LAM CLINIC,"739 Geylang Road, S389649",67481949,389649,"389649, Singapore",1.314974295,103.8904701
MACPHERSON MEDICAL CLINIC,"78 Circuit Road, #01-488, S370078",67463913,370078,"370078, Singapore",1.327880572,103.8852203
MAKE-WELL FAMILY CLINIC & SURGERY,"70 Lorong 4 Toa Payoh, #01-351, S310070",62534235,310070,"310070, Singapore",1.334448749,103.8523333
MANDARIN MEDICAL CENTRE,"66 Jln Jurong Kechil, Jk Building, S598586",64667822,598586,"598586, Singapore",1.340506922,103.7739039
MANHATTAN MEDICAL CENTRE,"151 Chin Swee Road, #01-10/11/12, Manhattan House, S169876",67322332,169876,"169876, Singapore",1.28705273,103.8408038
MARINE PARADE CLINIC,"59 Marine Terrace, #01-81, S440059",62419065,440059,"440059, Singapore",1.305856485,103.9147299
MARINE PARADE POLYCLINIC,"80 Marine Parade Central, S440080",66436969,440080,"440080, Singapore",1.302226176,103.90788
MARINE TERRACE FAMILY CLINIC,"57 Marine Terrace, #01-129, S440057",64420188,440057,"440057, Singapore",1.306512573,103.9154848
MAY MEDICAL CLINIC & SURGERY PTE LTD,"41 Holland Drive, #01-19, S270041",67743318,270041,"270041, Singapore",1.307620049,103.7934635
MAYFAIR MEDICAL CLINIC,"182 Woodlands Street 13, #01-04, S730182",62352880,730182,"730182, Singapore",1.435158951,103.7760233
MAYSPRINGS FAMILY CLINIC,"2 Petir Road, #01-14, Maysprings, S678265",66124336,678265,"678265, Singapore",1.377287555,103.7634306
MEDI CLINIC,"2 Jalan Kukoh, #01-149, S163002",66840356,163002,"163002, Singapore",1.288579699,103.8396145
MEDI HEALTHCARE CLINIC (PUNGGOL),"218 Sumang Walk, #01-02, S820218",64448748,820218,"820218, Singapore",1.403227125,103.895387
MEDICAL AND DENTAL CENTRE @ COMMONWEALTH,"88 Tanglin Halt Road, #01-03, Multi Storey Car Park, S141088",64756116,141088,"141088, Singapore",1.301864728,103.7981743
MEDICARE ASSOCIATES,"482 Tampines Ave 9 St 43, #01-236, S520482",67880137,520482,"520482, Singapore",1.361630492,103.9530009
MEDICO CLINIC & SURGERY,"249 Jurong East Street 24, #01-88, S600249",65610934,600249,"600249, Singapore",1.342591052,103.7391995
MEDIHEALTH BISHAN CLINIC & SURGERY,"121 Bishan St 12, #01-95, S570121",62583212,570121,"570121, Singapore",1.347186678,103.8510492
MEDINA MEDICAL CENTRE,"479 Tampines Street 44, #01-231, S520479",65882756,520479,"520479, Singapore",1.361433563,103.9535674
MEDIPOINT MEDICAL CENTRE (PONGGOL BRANCH),"401 Hougang Ave 10, #01-1170, S530401",63865046,530401,"530401, Singapore",1.374843395,103.8969942
MEDIPOINT MEDICAL CENTRE (WOODLANDS BRANCH),"548 Woodlands Dr 44, #02-24, Vista Point, S730548",68938776,730548,"730548, Singapore",1.430757656,103.7938526
MEDIVALE MEDICAL CLINIC,"236 Yishun Ring Road, #01-1012, Yishun Hearts, S760236",62570141,760236,"760236, Singapore",1.43416808,103.8389989
MEDIVENE CLINIC & SURGERY,"330 Anchorvale Street, #01-05, S540330",63850441,540330,"540330, Singapore",1.396849799,103.8892468
MEDIVIEW CLINIC AND SURGERY,"150 Toa Payoh Lorong 1, #01-999, S310150",62532351,310150,"310150, Singapore",1.333785196,103.8445162
MEDLIFE CLINIC & SURGERY,"684 Hougang Avenue 8, #01-985, S530684",63850836,530684,"530684, Singapore",1.373958405,103.8868985
MEI LING CLINIC,"158 Mei Ling St, #01-80, S140158",64741782,140158,"140158, Singapore",1.292740384,103.8028067
MEI LING CLINIC (TOA PAYOH),"500 Lor 6 Toa Payoh, #04-33, Biz One Hdb Hub, S310500",62535600,310500,"310500, Singapore",1.332892574,103.8471283
MERIDIAN MEDICAL AND DENTAL CENTRE,"327 Hougang Ave 5, #01-162, S530327",62825205,530327,"530327, Singapore",1.368306832,103.8959876
MERIDIAN MEDICAL CENTRE,"108 Depot Road, #01-10, Depot Heights Shopping Centre, S100108",62780088,100108,"100108, Singapore",1.281122269,103.8100313
MHC FAMILY CLINIC (ANG MO KIO),"452 Ang Mo Kio Ave 10, #01-1789, S560452",65534050,560452,"560452, Singapore",1.368897511,103.8562008
MILLENNIUM MEDICAL GROUP,"849 Woodlands St 82, #01-215, S730849",63680386,730849,"730849, Singapore",1.441310594,103.7920656
MILLENNIUM MEDICAL GROUP,"533 Choa Chu Kang St 51, #01-33, S680533",67656685,680533,"680533, Singapore",1.392073887,103.7430996
MINMED CLINIC (HAIG ROAD),"30 Haig Rd, S438737",67410123,438737,"438737, Singapore",1.313216381,103.895732
MINMED CLINIC (JURONG EAST),"50 Jurong Gateway Road, #04-17, Jem, S608549",63330123,608549,"608549, Singapore",1.333200218,103.7431704
MINMED CLINIC (PASIR RIS),"1 Pasir Ris Central Street 3, #05-08/09, White Sands, S518457",65850123,518457,"518457, Singapore",1.372398981,103.9497492
MINMED CLINIC (PUNGGOL),"83 Punggol Central, #02-15, Waterway Point, S828761",63880123,828761,"828761, Singapore",1.406426163,103.9022381
MINMED CLINIC (SENGKANG),"1 Sengkang Square, #04-13, Compass One, S545078",63860123,545078,"545078, Singapore",1.392054305,103.8950639
MINMED CLINIC (YISHUN),"1 Northpoint Drive, #02-153, Northpoint City, S768019",65540123,768019,"768019, Singapore",1.428754606,103.8363245
MINMED HEALTH SCREENERS,"290 Orchard Road, #16-04/09/10, Paragon, S238859",68380123,238859,"238859, Singapore",1.303949364,103.8358442
MISSION (BUKIT BATOK) MEDICAL CLINIC,"395A Bukit Batok West Ave 5, #03-02, S651395",65150760,651395,"651395, Singapore",1.363938215,103.751896
MISSION (HOUGANG) MEDICAL CLINIC,"356 Hougang Ave 7, #01-799, S530356",62814567,530356,"530356, Singapore",1.372593142,103.8988131
MISSION CROSS FAMILY CLINIC,"348 Yishun Avenue 11, #01-03, S760348",66358579,760348,"760348, Singapore",1.426624884,103.8429302
MISSION MEDICAL CLINIC,"780 Upper Serangoon Road, #01-01, S534649",62892100,534649,"534649, Singapore",1.354508587,103.8792814
MUTUAL HEALTHCARE MEDICAL CLINIC,"205A Compassvale Lane, #01-53, S541205",65473593,541205,"541205, Singapore",1.386039984,103.8969667
MUTUAL HEALTHCARE MEDICAL CLINIC,"319B Anchorvale Dr, #01-92, S542319",64893833,542319,"542319, Singapore",1.391397227,103.8904664
MUTUAL HEALTHCARE MEDICAL CLINIC,"106A Punggol Field, #01-546, S821106",63155036,821106,"821106, Singapore",1.396604861,103.9083441
MY CLINIC,"9 King Albert Park, #01-50, Kap, S598332",66108335,598332,"598332, Singapore",1.336908187,103.7792007
MY DOCTOR @ LAKESIDE,"201 Boon Lay Way, #01-05, Lakeside Mrt Station, S649845",62657270,649845,"649845, Singapore",1.344259131,103.7209491
MY DOCTOR'S PLACE PTE LTD,"218 Bedok North Street 1, #01-41, S460218",64449687,460218,"460218, Singapore",1.327356574,103.9337678
MY FAMILY CLINIC (ANCHORVALE),"326A Anchorvale Road, #01-260, S541326",67023963,541326,"541326, Singapore",1.394914173,103.8880001
MY FAMILY CLINIC (ANGSANA BREEZE @ YISHUN),"507 Yishun Avenue 4, #01-05, S760507",67530178,760507,"760507, Singapore",1.415176343,103.8398304
MY FAMILY CLINIC (CHOA CHU KANG),"475 Choa Chu Kang Ave 3, #02-01, Sunshine Place, S680475",67674566,680475,"680475, Singapore",1.377971933,103.7390421
MY FAMILY CLINIC (CLEMENTI 325) PTE LTD,"325 Clementi Ave 5, #01-139, S120325",67784608,120325,"120325, Singapore",1.315096685,103.7668174
MY FAMILY CLINIC (CLEMENTI),"420A Clementi Avenue 1, #01-05, Casa Clementi, S121420",66942574,121420,"121420, Singapore",1.309733312,103.7686373
MY FAMILY CLINIC (HOUGANG CENTRAL),"804 Hougang Central, #01-118, S530804",63852117,530804,"530804, Singapore",1.371151281,103.8944737
MY FAMILY CLINIC (PIONEER),"638 Jurong West St 61, #02-09, Pioneer Mall, S640638",68611182,640638,"640638, Singapore",1.341673319,103.6972445
MY FAMILY CLINIC (PUNGGOL CENTRAL),"301 Punggol Central, #01-02, S820301",68537351,820301,"820301, Singapore",1.403580476,103.906279
MY FAMILY CLINIC (RIVERVALE),"11 Rivervale Crescent, #02-11A, Rivervale Mall, S545082",68811978,545082,"545082, Singapore",1.392217327,103.9044731
MY FAMILY CLINIC (SEGAR),"485 Segar Road, #01-508, S670485",67107269,670485,"670485, Singapore",1.388681324,103.7713126
MY FAMILY CLINIC (SENJA),"628 Senja Road, #01-04, S670628",63140638,670628,"670628, Singapore",1.385096024,103.7602184
MY FAMILY CLINIC (ST GEORGE),"2 St. George'S Road, S328023",62922128,328023,"328023, Singapore",1.322419073,103.8632621
MY FAMILY CLINIC (TANGLIN HALT),"46-2 Commonwealth Drive, #01-372, S140462",64738920,140462,"140462, Singapore",1.299961994,103.7982276
MY FAMILY CLINIC (TOA PAYOH CENTRAL),"79D Toa Payoh Central, #01-53, S314079",62380301,314079,"314079, Singapore",1.334640844,103.8491655
MY FAMILY CLINIC (WOODLANDS GLEN),"573 Woodlands Drive 16, #01-09, S730573",67321520,730573,"730573, Singapore",1.431098072,103.7985076
MY FAMILY CLINIC (WOODLANDS),"768 Woodlands Ave 6, #02-07, Woodlands Mart, S730768",68840658,730768,"730768, Singapore",1.445717841,103.7981663
MYDOCTOR@ADMIRALTY PTE LTD,"693 Woodlands Avenue 6, #01-03, S730693",69098365,730693,"730693, Singapore",1.438087881,103.803765
MYHEALTH MEDICAL CENTRE,"501 West Coast Drive, #01-256, S120501",68726920,120501,"120501, Singapore",1.312312548,103.7593125
NATIONAL CLINIC,"352 Clementi Ave 2, #01-119, S120352",67760127,120352,"120352, Singapore",1.31427266,103.7713609
NCS MEDICAL CLINIC,"5 Ang Mo Kio Street 62, Blk A, #01-10, Ncs Hub, S569141",65704000,569141,"569141, Singapore",1.387821984,103.8440554
NEECARE MEDICAL CENTRE,"371 Bukit Batok Street 31, #01-320, S650371",65674990,650371,"650371, Singapore",1.359259409,103.7506946
NEIGHBOURHOOD MEDICAL CLINIC,"683 Hougang Ave 8, #01-901, S530683",63868689,530683,"530683, Singapore",1.373321226,103.8863655
NEO CLINIC & SURGERY,"257 Bangkit Road, #01-45, S670257",67625525,670257,"670257, Singapore",1.378508736,103.7732123
NEO MEDICAL CENTRE,"120 Potong Pasir Ave 1, #01-818, S350120",62854210,350120,"350120, Singapore",1.335453532,103.863388
NEOH & ONG MEDICAL CLINIC,"2A Eunos Crescent, #01-2447, S401002",67423322,401002,"401002, Singapore",1.320201105,103.9031935
NEPTUNE HEALTHCARE MEDICAL & SURGERY,"328 Tampines Street 32, #01-362, S520328",67818030,520328,"520328, Singapore",1.353166175,103.9582875
NEW HEALTH FAMILY CLINIC PTE LTD,"108 Depot Road, #01-08, S100108",62786200,100108,"100108, Singapore",1.281122269,103.8100313
NEW TOWN CLINIC PTE LTD,"59 New Upper Changi Road, #01-1224, S461059",64431784,461059,"461059, Singapore",1.324063953,103.9407491
NEWCASTLE CLINIC,"541 Orchard Road, #18-02A, Liat Towers, S238881",67362322,238881,"238881, Singapore",1.30510759,103.8307279
NEWEST MEDICAL AND LASER CLINIC PTE LTD,"1 West Coast Drive, #01-49/50, Newest, S128020",62660451,128020,"128020, Singapore",1.316413219,103.7574513
NEWLIFE FAMILY CLINIC & SURGERY,"61 Teban Gardens Road, #01-20, S600061",65663770,600061,"600061, Singapore",1.322136363,103.7382928
NORTHEAST MEDICAL GROUP,"22 Malacca Street, #13-03, Rb Capital Building, S048980",65572770,48980,"048980, Singapore",1.283949168,103.8508627
NORTHEAST MEDICAL GROUP,"25 Ghim Moh Link, #01-10, S270025",66943282,270025,"270025, Singapore",1.308118863,103.7860494
NORTHEAST MEDICAL GROUP,"531 Bedok North St 3, #01-692, S460531",64412402,460531,"460531, Singapore",1.333129919,103.9261531
NORTHEAST MEDICAL GROUP,"20 Tampines Central 1, #01-25, Tampines Mrt Station, S529538",67867848,529538,"529538, Singapore",1.352880872,103.9454731
NORTHEAST MEDICAL GROUP,"30 Simei Street 3, #02-01, Simei Mrt Station, S529888",67838638,529888,"529888, Singapore",1.343203421,103.9533713
NORTHEAST MEDICAL GROUP,"5 Sengkang Square, #01-05, S545062",68755911,545062,"545062, Singapore",1.391693492,103.8954844
NORTHEAST MEDICAL GROUP,"2450 Ang Mo Kio Avenue 8, #01-02, Ang Mo Kio Mrt Station, S569811",64524910,569811,"569811, Singapore",1.369933175,103.8495581
NORTHEAST MEDICAL GROUP,"10 Bukit Batok Central, #01-01, Bukit Batok Mrt Station, S659958",62661442,659958,"659958, Singapore",1.348710811,103.7493345
NORTHEAST MEDICAL GROUP,"39 Jalan Tiga, #01-01, S390039",62413298,390039,"390039, Singapore",1.307820603,103.8850923
NORTHLAND FAMILY CLINIC & SURGERY,"640 Yishun St 61, #01-198, S760640",67535181,760640,"760640, Singapore",1.421061805,103.8388065
NORWOOD MEDICAL CLINIC,"785E Woodlands Rise, #01-02, S735785",69373576,735785,"735785, Singapore",1.446804139,103.8054876
NOVENA MEDICAL CENTER FAMILY CLINIC,"10 Sinaran Drive, #11-19, Square 2, S307506",63977318,307506,"307506, Singapore",1.320441031,103.8441926
NUHEALTH MEDICAL CENTRE,"1 Woodlands Road, #01-23, Junction 10, S677899",62199298,677899,"677899, Singapore",1.380335458,103.7601306
NYAM FAMILY CLINIC,"296 Bedok Road, Bedok Shopping Complex, S469452",64460069,469452,"469452, Singapore",1.3315621,103.9485827
OASIS FAMILY CLINIC,"56 New Upper Changi Road, #01-1322, S461056",64488055,461056,"461056, Singapore",1.324993794,103.9410826
OC MEDICAL RAFFLES PLACE,"1 Raffles Place, #05-15/16, S048616",65322692,48616,"048616, Singapore",1.284339943,103.8509823
OEI & KHO CLINIC AND SURGERY,"18 Lorong 7 Toa Payoh, #01-250, S310018",62501328,310018,"310018, Singapore",1.335757237,103.8567896
OGL MEDICAL CENTERS,"10 Sinaran Drive, #10-31, Square 2, S307506",69099910,307506,"307506, Singapore",1.320441031,103.8441926
ONE MEDICAL CLINIC,"728 Jurong West Avenue 5, #01-K1, S640728",67922143,640728,"640728, Singapore",1.346099249,103.6976964
ONECARE CLINIC ALJUNIED MRT,"81 Lorong 25 Geylang, #01-03, Aljunied Mrt Station, S388310",63522639,388310,"388310, Singapore",1.316432612,103.882906
ONECARE CLINIC BEDOK MRT,"315 New Upper Changi Road, #01-01, Bedok Mrt Station, S467347",63522639,467347,"467347, Singapore",1.32398845,103.9300325
ONECARE CLINIC BOON LAY,"221 Boon Lay Place, #01-152, Boon Lay Shopping Centre, S640221",62611580,640221,"640221, Singapore",1.346373764,103.7124728
ONECARE CLINIC BUKIT BATOK,"630 Bukit Batok Central, #01-148, S650630",65636913,650630,"650630, Singapore",1.35008873,103.7499152
ONECARE CLINIC BUKIT GOMBAK MRT,"802 Bukit Batok West Avenue 5, #01-16, S659083",62558472,659083,"659083, Singapore",1.35868356,103.7519063
ONECARE CLINIC BUKIT PANJANG,"547 Segar Road, #01-05, Multi Storey Car Park, S670547",62508533,670547,"670547, Singapore",1.388240217,103.7695754
ONECARE CLINIC CANBERRA,"105 Canberra Street, #01-09, S750105",62513778,750105,"750105, Singapore",1.448864022,103.8323929
ONECARE CLINIC CHOA CHU KANG,"810 Choa Chu Kang Avenue 7, #01-09, Multi Storey Car Park, S680810",67666146,680810,"680810, Singapore",1.374054618,103.7461609
ONECARE CLINIC CLEMENTI,"449 Clementi Avenue 3, #01-241, S120449",63522639,120449,"120449, Singapore",1.313262238,103.7649742
ONECARE CLINIC FERNVALE,"417 Fernvale Link, #01-10, S790417",63522639,790417,"790417, Singapore",1.391587048,103.8798725
ONECARE CLINIC HOUGANG,"104 Hougang Avenue 1, #01-1125, S530104",65250325,530104,"530104, Singapore",1.354784387,103.8903185
ONECARE CLINIC HOUGANG AVE 8,"681 Hougang Avenue 8, #01-835, S530681",63522639,530681,"530681, Singapore",1.37311063,103.8856366
ONECARE CLINIC LOYANG,"258 Pasir Ris Street 21, #02-14, Loyang Point, S510258",63857435,510258,"510258, Singapore",1.367066342,103.9646356
ONECARE CLINIC MARINE PARADE,"81 Marine Parade Central, #01-644, S440081",63441620,440081,"440081, Singapore",1.302641286,103.9070732
ONECARE CLINIC PUNGGOL PLAZA,"168 Punggol Feild, #01-09, S820168",69043511,820168,"820168, Singapore",1.394256298,103.9130435
ONECARE CLINIC TAMPINES,"827 Tampines Street 81, #01-142, S520827",64435938,520827,"520827, Singapore",1.349721495,103.9337192
ONECARE CLINIC TAMPINES MRT,"20 Tampines Central 1, #01-27, S529538",67853702,529538,"529538, Singapore",1.352880872,103.9454731
ONECARE CLINIC TIONG BAHRU,"11A Boon Tiong Road, #01-08, S161011",63582568,161011,"161011, Singapore",1.286365781,103.8287899
ONECARE CLINIC WOODLANDS,"04 Woodlands Street 12, #02-57, S738623",63632919,738623,"738623, Singapore",1.433512535,103.7797469
ONECARE CLINIC YISHUN,"431 Yishun Avenue 1, #01-04, Multi Storey Car Park, S760431",63342373,760431,"760431, Singapore",1.420263342,103.8475894
ONEDOCTORS FAMILY CLINIC,"253 Holland Avenue, #02-01, Holland Village, S278982",64698938,278982,"278982, Singapore",1.311330365,103.7955821
ONEDOCTORS FAMILY CLINIC,"710 Ang Mo Kio Avenue 8, #01-2613, S560710",65542918,560710,"560710, Singapore",1.371045831,103.8481868
ONEDOCTORS FAMILY CLINIC,"846 Yishun Ring Road, #01-3611, Yishun New Town, S760846",62578980,760846,"760846, Singapore",1.416786343,103.8346418
ONEDOCTORS FAMILY CLINIC,"83 Punggol Central, #02-17, Waterway Point, S828761",63858018,828761,"828761, Singapore",1.406426163,103.9022381
ONEDOCTORS MEDICAL CENTRE,"23 Serangoon Central, #01-54/55, Nex, S556083",66344918,556083,"556083, Singapore",1.350731854,103.8723132
ONG CLINIC & SURGERY (YISHUN),"293 Yishun Street 22, #01-223, S760293",66123707,760293,"760293, Singapore",1.436114254,103.8376052
ONG CLINIC & SURGERY PTE LTD,"265 Bukit Batok East Ave 4, #01-387, S650265",67695704,650265,"650265, Singapore",1.350008402,103.7598628
ONG MEDICAL CLINIC,"316B Ang Mo Kio St 31, #01-10, S563316",64523586,563316,"563316, Singapore",1.364625403,103.847677
ONG'S CLINIC,"175 Bencoolen St, #01-44, Burlington Square, S189649",63371814,189649,"189649, Singapore",1.302128037,103.8526047
ORCHARD GROUP CLINIC,"545 Orchard Rd, #12-04/04A, Far East Shopping Centre, S238882",67344989,238882,"238882, Singapore",1.305506286,103.829985
OUR FAMILY CLINIC & SURGERY PTE LTD,"8 Jln Batu, #01-15, S431008",64470847,431008,"431008, Singapore",1.30263934,103.8831797
OUR FAMILY PHYSICIAN CLINIC & SURGERY,"829 Tampines St 81, #01-292, S520829",67850147,520829,"520829, Singapore",1.349221002,103.9349143
OUTRAM POLYCLINIC,"3 Second Hospital Ave, #02-00 Health Promotion Board Building, S168937",66436969,168937,"168937, Singapore",1.279602207,103.8383462
P TAN FAMILY MEDICINE CLINIC,"503 Bishan Street 11, #01-464, S570503",62557545,570503,"570503, Singapore",1.349032375,103.8480475
P.K. ANG FAMILY CLINIC & SURGERY,"106 Hougang Avenue 1, #01-1225, S530106",62843022,530106,"530106, Singapore",1.353703135,103.8906808
PACIFIC FAMILY CLINIC,"75D Redhill Road, #01-116, S154075",64740343,154075,"154075, Singapore",1.288464768,103.8157116
PACIFIC MEDICAL & DENTAL GROUP,"716 Yishun St 71, #01-270, S760716",67524050,760716,"760716, Singapore",1.426124889,103.8275126
PANCARE MEDICAL CLINIC,"133 Ang Mo Kio Avenue 3, #01-1651, Kebun Baru Spring, S560133",62583186,560133,"560133, Singapore",1.371139686,103.8426442
PANDAN CLINIC PTE LTD,"415 Pandan Gardens, #01-115, S600415",65603186,600415,"600415, Singapore",1.320765433,103.7482586
PANHEALTH FAMILY CLINIC,"312B Sumang Link, #01-03, S822312",69660595,822312,"822312, Singapore",1.411353096,103.9006147
PANHEALTH FAMILY CLINIC (HOUGANG),"932B Hougang Avenue 9, #01-02, Hougang Crimson, S532932",66101496,532932,"532932, Singapore",1.375126661,103.8822349
PARKLANE MEDICAL CENTRE,"35 Selegie Road, #02-25A, Parklane Shopping Mall, S188307",63346778,188307,"188307, Singapore",1.300645302,103.8494486
PARKWAY SHENTON MEDICAL GROUP,"50 Robinson Road, #01-03, Robinson Suites, S068882",62223626,68882,"068882, Singapore",1.280934745,103.8498225
PARKWAY SHENTON MEDICAL GROUP,"451 Clementi Avenue 3, #01-309, S120451",67739150,120451,"120451, Singapore",1.312648085,103.7656803
PARKWAY SHENTON MEDICAL GROUP,"10 Eunos Road 8, #02-122, Singapore Post Centre, S408600",68488018,408600,"408600, Singapore",1.318982204,103.8947228
PARKWAY SHENTON MEDICAL GROUP,"7 Changi Business Park Crescent, #01-00, Standard Chartered @ Changi, S486028",62277777,486028,"486028, Singapore",1.334843745,103.966496
PARKWAY SHENTON MEDICAL GROUP,"205 Hougang Street 21, #03-20, Heartland Mall - Kovan, S530205",68449630,530205,"530205, Singapore",1.359496648,103.8850799
PARKWAY SHENTON MEDICAL GROUP,"1 Jelebu Road, #03-02, Bukit Panjang Plaza, S677743",67697863,677743,"677743, Singapore",1.379916507,103.7643171
PARKWAY SHENTON MEDICAL GROUP,"681 Punggol Drive, #01-01, S820681",62448324,820681,"820681, Singapore",1.402878458,103.9131957
PARKWAYHEALTH PRIMARY CARE NETWORK,"11 Collyer Quay, #18-01/02, The Arcade, S49317",65079710,49317,"049317, Singapore",1.283619823,103.8520589
PASIR RIS CLINIC & SURGERY PTE LTD,"442 Pasir Ris Dr 6, #01-28, S510442",65820502,510442,"510442, Singapore",1.368932887,103.9579517
PASIR RIS POLYCLINIC,"1 Pasir Ris Drive 4, #01-11, S519457",66436969,519457,"519457, Singapore",1.368467662,103.9594375
PEACE FAMILY CLINIC,"371 Woodlands Ave 1, #01-821, S730371",62690466,730371,"730371, Singapore",1.432282258,103.7867144
PEACE FAMILY CLINIC & SURGERY,"406 Sembawang Dr, #01-820, S750406",65556674,750406,"750406, Singapore",1.452909954,103.816973
PEACE FAMILY CLINIC (WL832),"832 Woodlands Street 83, #01-71, S730832",63634357,730832,"730832, Singapore",1.439669378,103.7907615
PHOENIX CLINIC & SURGERY,"150 Jalan Teck Whye, #01-43, S680150",67675345,680150,"680150, Singapore",1.378203511,103.7564509
PHOENIX MEDICAL GROUP,"1 Seletar Road, #02-11, Greenwich V, S807011",65553512,807011,"807011, Singapore",1.387367695,103.869348
PHOENIX MEDICAL GROUP ( CACTUS ),"7 Ang Mo Kio Street 66, #01-17, Floravista, S567708",67639185,567708,"567708, Singapore",1.391463101,103.8506024
PHOENIX MEDICAL GROUP (HILLVIEW),"4 Hillview Rise, #02-20, Hillv2, S667979",67107151,667979,"667979, Singapore",1.363550958,103.7642361
PHOENIX MEDICAL GROUP (PAYA LEBAR),"60 Paya Lebar Road, #02-09, Paya Lebar Square, S409051",67022940,409051,"409051, Singapore",1.31881487,103.8925808
PHOON CLINIC AND SURGERY,"632 Bedok Reservoir Rd, #01-828, S470632",64452119,470632,"470632, Singapore",1.332050526,103.9141462
PHYSICIANS PRACTICE FAMILY MEDICAL CENTER,"101 Thomson Road, #01-17, United Square, S307591",62548182,307591,"307591, Singapore",1.317334632,103.8435977
PIDEMCO MEDICAL CENTRE PTE LTD,"156 Yishun St 11, #01-112, S760156",67560606,760156,"760156, Singapore",1.431887619,103.8335678
PIER MEDICAL CENTRE,"725 Jurong West Ave 5, #B1-164, S640725",67915677,640725,"640725, Singapore",1.34545355,103.6977196
PINETREE MEDICAL CLINIC,"86 Bedok North Street 4, #01-175, S460086",66791149,460086,"460086, Singapore",1.332540844,103.9389893
PINNACLE FAMILY CLINIC (BUANGKOK SQUARE),"991 Buangkok Link, #02-05, Buangkok Square, S530991",69099203,530991,"530991, Singapore",1.384334266,103.8816231
PINNACLE FAMILY CLINIC (COMPASSVALE),"289C Compassvale Crescent, #01-04, S543289",63861089,543289,"543289, Singapore",1.397579947,103.8968246
PINNACLE FAMILY CLINIC (RIVER VALLEY),"240 River Valley Road, S238297",68366986,238297,"238297, Singapore",1.294205695,103.8423995
PINNACLE FAMILY CLINIC (SERANGOON NORTH),"518 Serangoon North Avenue 4, #B1-208, S550518",62193910,550518,"550518, Singapore",1.371641729,103.8741022
PINNACLE FAMILY CLINIC (WOODLANDS),"573 Woodlands Drive 16, #01-06, S730573",67601623,730573,"730573, Singapore",1.431098072,103.7985076
PIONEER POLYCLINIC,"26 Jurong West St 61, S648201",63553000,648201,"648201, Singapore",1.338562251,103.6989793
PJ CLINIC,"36 Beo Crescent, #01-49, S160036",62727818,160036,"160036, Singapore",1.288359771,103.8270569
PLATINUM MEDICAL CENTRE @DORM,"28 Toh Guan Road East, #01-01, (Mezzanine Floor), S608596",65656338,608596,"608596, Singapore",1.336417982,103.7518074
PLATINUM MEDICAL CENTRE PTE LTD,"504 Yishun Street 51, #01-02, Multi Storey Car Park, S760504",62571134,760504,"760504, Singapore",1.418401356,103.8445821
PLATINUM MEDICAL CLINIC AND SURGERY PTE LTD,"513 Yishun Street 51, #01-03, Saraca Breeze @ Yishun, S760513",69740800,760513,"760513, Singapore",1.416004817,103.8442553
PLUSHEALTH MEDICAL CLINIC & SURGERY,"89 Whampoa Drive, #01-841, S320089",62647845,320089,"320089, Singapore",1.323639137,103.8549886
POTONG PASIR MEDICAL CLINIC,"148 Potong Pasir Avenue 1, #01-55, S350148",62624384,350148,"350148, Singapore",1.332709004,103.8679899
POW FAMILY CLINIC & SURGERY,"620 Hougang Ave 8, #01-264, S530620",62878105,530620,"530620, Singapore",1.370144007,103.8839681
PRAISE FAMILY CLINIC,"717 Tampines St 72, #01-75, S520717",67849785,520717,"520717, Singapore",1.35881527,103.9351473
PREMIER CLINIC & SURGERY PTE LTD,"631 Ang Mo Kio Ave 4, #01-936, S560631",64562982,560631,"560631, Singapore",1.379557282,103.8407357
PRIMARY CARE ASIA,"290 Orchard Road, #15-11/12, The Paragon, S238859",66725008,238859,"238859, Singapore",1.303949364,103.8358442
PRIME MEDICAL GROUP PTE LTD,"290 Orchard Road, #09-11/12, The Paragon, S238859",67328096,238859,"238859, Singapore",1.303949364,103.8358442
PRINCETON FAMILY CLINIC PTE LTD.,"445 Fajar Rd, #01-546, Fajar Shopping Centre, S670445",67622278,670445,"670445, Singapore",1.383574699,103.7708685
PROCROSS MEDICAL CENTRE,"449 Hougang Avenue 10, #B1-509, S530449",67022848,530449,"530449, Singapore",1.378780982,103.8951536
PROCROSS MEDICAL CLINIC,"689A Woodlands Drive 75, #01-86, S731689",62199648,731689,"731689, Singapore",1.444386293,103.8079254
PROHEALTH 24-HOUR MEDICAL CLINIC,"259 Bukit Panjang Ring Road, #01-18, S671259",67652115,671259,"671259, Singapore",1.377240892,103.7731654
PROHEALTH MEDICAL GROUP @ BUANGKOK PTE LTD,"275D Compassvale Link, #01-01(UNIT 12), S544275",64818066,544275,"544275, Singapore",1.382904957,103.8937135
PROHEALTH MEDICAL GROUP @ HOUGANG PTE LTD,"476D Upper Serangoon View, #02-04, S537476",63847662,537476,"537476, Singapore",1.377915061,103.9036238
PROHEALTH MEDICAL GROUP @ PUNGGOL DAMAI PTE LTD,"612 Punggol Drive, #01-05, Multi Storey Car Park, S820612",65091580,820612,"820612, Singapore",1.404610028,103.9086656
PROHEALTH MEDICAL GROUP @FERNVALE PTE LTD,"33 Sengkang West Avenue, #B1-18, The Seletar Mall, S797653",68864780,797653,"797653, Singapore",1.391368809,103.876157
PROHEALTH MEDICAL GROUP @LRT FERNVALE PTE LTD,"437 Fernvale Road, #01-04, Multi Storey Car Park, S790437",64411672,790437,"790437, Singapore",1.392550406,103.8763304
PROHEALTH MEDICAL GROUP @PUNGGOL SPECTRA PTE. LTD.,"622D Punggol Central, #01-02, S824622",64447701,824622,"824622, Singapore",1.40053115,103.9105369
PROHEALTH MEDICAL GROUP @TAMAN JURONG PTE LTD,"399 Yung Sheng Road, #01-56, Taman Jurong Shopping Centre, S610399",62682628,610399,"610399, Singapore",1.334844875,103.720462
PRO-LIFE MEDICAL ASSOCIATES,"253 Choa Chu Kang Ave 1, #01-20, S680253",67646717,680253,"680253, Singapore",1.377439635,103.7443832
PROVIDENCE CLINIC @ HILLFORD,"182 Jalan Jurong Kechil, #01-65, S596152",63140970,596152,"596152, Singapore",1.344043373,103.7695439
PRUDENCE FAMILY CLINIC,"512 Bishan Street 13, #01-524, S570512",62515512,570512,"570512, Singapore",1.349622352,103.8498817
PUBLIC MEDICAL CLINIC & SURGERY,"664 Yishun Ave 4, #01-275, S760664",67556539,760664,"760664, Singapore",1.420199866,103.8410746
PULSE CLINIC PTE LTD,"38 Beo Crescent, #01-32, The Beo Crescent, S160038",62724145,160038,"160038, Singapore",1.288553932,103.82729
PUNGGOL FAMILY CLINIC PTE. LTD.,"322 Sumang Walk, #01-03, Multi Storey Car Park, S820322",63439989,820322,"820322, Singapore",1.411247035,103.8975014
PUNGGOL POLYCLINIC,"681 Punggol Drive, Oasis Terraces, #02-01, S820681",66436969,820681,"820681, Singapore",1.402878458,103.9131957
PUNGGOL RIPPLES FAMILY CLINIC,"211D Punggol Walk, #01-667, S824211",65383707,824211,"824211, Singapore",1.400935632,103.8991985
Q & M MEDICAL & AESTHETIC CLINIC (FARRER PARK),"180 Kitchener Road, #B1-13/14, City Square Mall, S208539",65099558,208539,"208539, Singapore",1.31138865,103.8566262
Q & M MEDICAL & AESTHETIC CLINIC (TAMPINES CENTRAL) PTE. LTD.,"10 Tampines Central 1, #04-18/19, Tampines One, S529536",67813323,529536,"529536, Singapore",1.354204304,103.945052
Q & M MEDICAL CLINIC (BUKIT BATOK),"151 Bukit Batok Street 11, #01-252, S650151",65653866,650151,"650151, Singapore",1.348747035,103.7442115
Q & M MEDICAL FAMILY CLINIC,"261 Serangoon Central Drive, #01-29. S550261",64882336,550261,"550261, Singapore",1.354052552,103.8725245
Q & M MUTUAL HEALTHCARE MEDICAL CLINIC,"70 Punggol Central, #01-07, Punggol Mrt Station, S828868",63846605,828868,"828868, Singapore",1.404562859,103.9020917
QUEENSTOWN POLYCLINIC,"580 Stirling Road, S148958",66436969,148958,"148958, Singapore",1.298475474,103.8009578
RAFFLESMEDICAL,"8 Marina View, #15-01, Asia Square Tower 1, S018960",66360160,18960,"018960, Singapore",1.27884624,103.8511636
RAFFLESMEDICAL,"12 Marina Boulevard, #17-05, Marina Bay Financial Centre Tower 3, S018982",66360390,18982,"018982, Singapore",1.279109769,103.8544055
RAFFLESMEDICAL,"6 Raffles Boulevard, #01-212, Marina Square, S039594",63396644,39594,"039594, Singapore",1.291039803,103.8576235
RAFFLESMEDICAL,"50 Raffles Place, #01-02A, Singapore Land Tower, S048623",65342900,48623,"048623, Singapore",1.284665068,103.8521275
RAFFLESMEDICAL,"80 Robinson Road, #01-00, S068898",62231188,68898,"068898, Singapore",1.280137405,103.8493164
RAFFLESMEDICAL,"168 Robinson Road, #02-02, Capital Tower, S068912",63235212,68912,"068912, Singapore",1.277711805,103.8475227
RAFFLESMEDICAL,"51 Anson Road, #01-51, Anson Centre, S079904",62252188,79904,"079904, Singapore",1.274507871,103.8457102
RAFFLESMEDICAL,"1 Maritime Square, #03-56, Harbourfront Centre, S099253",62733078,99253,"099253, Singapore",1.263796829,103.820219
RAFFLESMEDICAL,"370 Alexandra Road, #B1-41, Anchorpoint, S159953",64793818,159953,"159953, Singapore",1.289011589,103.805331
RAFFLESMEDICAL,"1 Scotts Road, #04-09 to 14, Shaw Centre, S228208",68380080,228208,"228208, Singapore",1.306150487,103.8318534
RAFFLESMEDICAL,"391B Orchard Rd, #08-06, Ngee Ann City Tower B, S238874",67347355,238874,"238874, Singapore",1.302424172,103.8346761
RAFFLESMEDICAL,"10E Sixth Avenue, #01-03, S276474",64623426,276474,"276474, Singapore",1.331211829,103.7948254
RAFFLESMEDICAL,"118 Holland Avenue, #05-02/03/04, Raffles Holland V, S278997",62501411,278997,"278997, Singapore",1.310529779,103.7961052
RAFFLESMEDICAL,"203 Bedok North Street 1, #01-467, S460203",68449291,460203,"460203, Singapore",1.325744613,103.9291946
RAFFLESMEDICAL,"1 Changi Business Park Crescent, #01-11, Plaza 8, S486025",67819033,486025,"486025, Singapore",1.333601593,103.9654119
RAFFLESMEDICAL,"5 Changi Business Park Central 1, #B1-55/56, Changi City Point, S486038",66361251,486038,"486038, Singapore",1.33411313,103.9627928
RAFFLESMEDICAL,"259 Pasir Ris Street 21, #02-33, Loyang Point, S510259",65853333,510259,"510259, Singapore",1.366259352,103.9646456
RAFFLESMEDICAL,"1 Tampines Street 73, S528704",63111111,528704,"528704, Singapore",1.358288378,103.9313866
RAFFLESMEDICAL,"3 Simei Street 6, #02-27, Eastpoint Mall, S528833",66361458,528833,"528833, Singapore",1.342586441,103.9530723
RAFFLESMEDICAL,"809 Hougang Central, #01-180, S530809",63867897,530809,"530809, Singapore",1.371196033,103.8936682
RAFFLESMEDICAL,"722 Ang Mo Kio Ave 8, #01-2825, S560722",64532288,560722,"560722, Singapore",1.37224394,103.8475293
RAFFLESMEDICAL,"131 Jurong Gateway Road, #01-267, S600131",68996688,600131,"600131, Singapore",1.334722146,103.7400412
RAFFLESMEDICAL,"17 Petir Road, #02-07/08, Hillion Mall, S678278",67690571,678278,"678278, Singapore",1.378389221,103.7631502
RAFFLESMEDICAL,"21 Choa Chu Kang Ave 4, #B1-07A, Lot 1 Shoppers' Mall, S689812",67653363,689812,"689812, Singapore",1.38511155,103.7450362
RAFFLESMEDICAL,"1 Woodlands Square, #05-20, Causeway Point, S738099",68940777,738099,"738099, Singapore",1.436088677,103.78601
RAFFLESMEDICAL,"355 Sembawang Way, #01-06/07, S750355",68537703,750355,"750355, Singapore",1.449543108,103.8187263
RAFFLESMEDICAL,"930 Yishun Avenue 2, #03-35, Northpoint City (North Wing), S769098",67550049,769098,"769098, Singapore",1.42944268,103.8358145
RAFFLESMEDICAL,"20 Airport Boulevard, Sats Inflight Catering Centre 1, S819659",63861203,819659,"819659, Singapore",1.341846208,103.9839957
RAFFLESMEDICAL,"10 Airport Boulevard, #01-01, Arrival Hall, Passenger Terminal Building 4, S819665",62488818,819665,"819665, Singapore",1.338440203,103.9836791
RAFFLESMEDICAL,"Singapore Changi Interneational, #02-10, Passenger Terminal Building 1, S819642",65431113,819642,"819642, Singapore",1.362007685,103.9901826
RAFFLESMEDICAL,"1 Jurong West Central 2, #B1A-19D, Jurong Point Shopping Centre, S648886",67900583,648886,"648886, Singapore",1.339738866,103.7067896
RAFFLESMEDICAL,"252 North Bridge Road, #02-17, Raffles City Shopping Centre, S179103",63396911,179103,"179103, Singapore",1.293893579,103.8531199
RAFFLESMEDICAL,"177 Toa Payoh Central, #01-170, S310177",62547667,310177,"310177, Singapore",1.333902459,103.8488447
RAFFLESMEDICAL,"55 Siglap Road, #02-11/12, Siglap Centre, S455871",64420488,455871,"455871, Singapore",1.312605656,103.9231681
RAFFLESMEDICAL,"1 Pasir Ris Central Street 3, #04-19, White Sands, S518457",65851279,518457,"518457, Singapore",1.372398981,103.9497492
RAFFLESMEDICAL,"10 Tampines Central 1, #03-28, Tampines One, S529536",62605116,529536,"529536, Singapore",1.354204304,103.945052
RAFFLESMEDICAL,"1 Sengkang Square, #04-09, Compass One, S545078",63855057,545078,"545078, Singapore",1.392054305,103.8950639
RAFFLESMEDICAL,"11 Rivervale Crescent, #02-17, Rivervale Mall, S545082",63852154,545082,"545082, Singapore",1.392217327,103.9044731
RAFFLESMEDICAL,"23 Serangoon Central, #B2-01, Nex, S556083",66342585,556083,"556083, Singapore",1.350731854,103.8723132
RAFFLESMEDICAL,"283 Bishan Street 22, #01-177, S570283",64567122,570283,"570283, Singapore",1.358919071,103.8447486
RAFFLESMEDICAL,"446 Clementi Avenue 3, #01-189, S120446",68729043,120446,"120446, Singapore",1.312513057,103.7649278
RAFFLESMEDICAL,"21 Choa Chu Kang North 6, #01-02, Yewtee Point, S689578",66343132,689578,"689578, Singapore",1.397084324,103.746598
RAFFLESMEDICAL,"60 Airport Boulevard, #26-53, Passenger Terminal Building 2, S819643",65463815,819643,"819643, Singapore",1.355504551,103.989141
RAFFLESMEDICAL,"60 Airport Boulevard, #B16-25, Changi Airport Terminal 2, S819643",65431118,819643,"819643, Singapore",1.355504551,103.989141
RAFFLESMEDICAL,"65 Airport Boulevard Departure Hall, #02-67, Singapore Changi Airport Terminal 3, S819663",62418818,819663,"819663, Singapore",1.356226404,103.986102
RAFFLESMEDICAL,"83 Punggol Central, #02-29, Waterway Point, S828761",63845655,828761,"828761, Singapore",1.406426163,103.9022381
RCMC RIVERVALE CRESCENT MEDICAL CENTRE,"182A Rivervale Crescent, #01-04, S541182",68860772,541182,"541182, Singapore",1.390452729,103.9088923
RC'S FAMILY CLINIC PTE LTD,"635C Senja Road, #01-03, Senja Gateway, S673635",64688006,673635,"673635, Singapore",1.386501871,103.7584339
RED DOT MEDICAL,"660A Edgedale Plains, #02-06, Waterway Sundew, S821660",69372388,821660,"821660, Singapore",1.402621973,103.9165196
REDWOOD CLINIC AND SURGERY PTE LTD,"920 Tiong Bahru Road, #01-07, Redhill Mrt Station, S158792",62512193,158792,"158792, Singapore",1.289634534,103.816741
RIVERVALE FAMILY CLINIC & SURGERY,"118 Rivervale Drive, #01-02, Rivervale Plaza, S540118",63889762,540118,"540118, Singapore",1.385371516,103.9018496
ROCHOR CENTRE CLINIC,"175 Bencoolen Street, #01-20, Burlington Square, S189649",62928327,189649,"189649, Singapore",1.302128037,103.8526047
ROYAL CARE MEDICAL FAMILY CLINIC CHOA CHU KANG,"818 Choa Chu Kang Ave 1, #01-13, S680818",67608784,680818,"680818, Singapore",1.378026162,103.7488268
ROYAL CARE MEDICAL YISHUN GROVE,"675 Yishun Avenue 4, #01-07, S760675",68152990,760675,"760675, Singapore",1.42015551,103.8435589
ROYAL CARE MEDICAL YISHUN JUNCTION 9,"317 Yishun Ave 9, #01-03, S760317",67107338,760317,"760317, Singapore",1.433772813,103.8422769
ROYAL MEDICAL CENTRE,"111 Woodlands St 13, #01-84, S730111",63656855,730111,"730111, Singapore",1.437943817,103.7820594
RUBY MEDICAL CENTRE PTE LTD,"505 Tampines Central 1, #01-339, S520505",67837847,520505,"520505, Singapore",1.355548482,103.9456161
S & L FAMILY CLINIC,"729 Yishun St 71, #01-105, S760729",67546203,760729,"760729, Singapore",1.425852856,103.8315983
S AND L FAMILY CLINIC,"235 Yishun St 21, #01-446, S760235",62576885,760235,"760235, Singapore",1.434228893,103.838544
S G CLINIC FAMILY PRACTICE,"84 Serangoon Garden Way, S555980",63821988,555980,"555980, Singapore",1.36435697,103.864992
S LEE CLINIC,"644 Hougang Ave 8, #01-265, S530644",63861632,530644,"530644, Singapore",1.371437365,103.8812611
S S TAN MEDICAL CLINIC,"744 Yishun St 72, #01-195, S760744",67583952,760744,"760744, Singapore",1.429341729,103.8340492
SASCO CLINIC,"8 Changi North Way, St Aerospace Services Company Pte Ltd, S499611",65420403,499611,"499611, Singapore",1.350649164,103.9723256
SATA COMMHEALTH COMMUNITY HUB,"447B Jalan Kayu, #01-01, Fernvale Lodge, S792447",62446688,792447,"792447, Singapore",1.392466329,103.8732077
SATA COMMHEALTH MEDICAL CENTRE,"7 Tanjong Pagar Plaza, #02-103, S81007",62446688,81007,"081007, Singapore",1.277120122,103.8431177
SAUDARA CLINIC BY A+J GENERAL PHYSICIANS,"228 Changi Road, #01-01, Icon@Changi, S419741",62444485,419741,"419741, Singapore",1.317223609,103.9046853
SEMBAWANG MART MEDICAL CENTRE,"511 Canberra Road, #02-02A, Sembawang Mart, S750511",64819793,750511,"750511, Singapore",1.453775808,103.8195905
SENGKANG FAMILY CLINIC,"274D Compassvale Bow, #01-01, S544274",63867781,544274,"544274, Singapore",1.382530461,103.8911566
SENGKANG POLYCLINIC,"2 Sengkang Square, #01-04 Sengkang Community Hub, S545025",66436969,545025,"545025, Singapore",1.392702573,103.8941461
SENNETT MEDICAL CLINIC,"55 Siglap Road, ##B1-10, Siglap Centre, S455871",62800670,455871,"455871, Singapore",1.312605656,103.9231681
SHALOM MEDICAL GROUP,"231 Bain Street, #03-57, Bras Basah Complex, S180231",63371884,180231,"180231, Singapore",1.296808708,103.8536012
SHENTON CLINIC,"498 Jurong West St 41, #01-464, S640498",65654442,640498,"640498, Singapore",1.348333357,103.7243073
SHENTON FAMILY MEDICAL CLINIC,"1 Cantonment Road, #01-02, Pinnacle@Duxton, S080001",65095260,80001,"080001, Singapore",1.277034744,103.841261
SHENTON FAMILY MEDICAL CLINIC,"102 Towner Road, #01-268 (Lower Floor), Townerville, S322102",63910860,322102,"322102, Singapore",1.320586095,103.862002
SHENTON FAMILY MEDICAL CLINIC,"728 Ang Mo Kio Avenue 6, #01-4208, S560728",65545130,560728,"560728, Singapore",1.372628416,103.8456829
SHENTON FAMILY MEDICAL CLINIC (BEDOK RESERVOIR),"744 Bedok Reservoir Road, #01-3065, S470744",64435936,470744,"470744, Singapore",1.337587346,103.9219636
SHENTON FAMILY MEDICAL CLINIC (TAMPINES),"201D Tampines Street 21, #01-1137, S524201",67845291,524201,"524201, Singapore",1.352141948,103.9540103
SHENTON FAMILY MEDICAL CLINIC (YISHUN),"160 Yishun Street 11, #01-200, S760160",68516233,760160,"760160, Singapore",1.432414546,103.8333445
SHENTON MEDICAL GROUP,"8A Marina Boulevard, #B2-76, Marina Bay Link Mall, S018984",66345620,18984,"018984, Singapore",1.280467943,103.8534701
SHENTON MEDICAL GROUP,"1 Raffles Quay, #09-02, One Raffles Quay North Tower, S048583",63277273,48583,"048583, Singapore",1.281150405,103.8519086
SHENTON MEDICAL GROUP,"10 Anson Rd, #36-01, International Plaza, S079903",62202911,79903,"079903, Singapore",1.275856669,103.8459551
SHENTON MEDICAL GROUP,"26 Sentosa Gateway, #B2-01, S098138",62382582,98138,"098138, Singapore",1.257209617,103.8204937
SHENTON MEDICAL GROUP,"90 Bras Basah Road, #B1-02, Esplanade Mrt Station, S189562",68870151,189562,"189562, Singapore",1.293305858,103.855268
SHENTON MEDICAL GROUP,"333 Orchard Road, #06-01, Mandarin Orchard Singapore, S238867",62383631,238867,"238867, Singapore",1.302064505,103.836341
SHENTON MEDICAL GROUP,"1000 Toa Payoh North, #07-00, Annexe Block, S318994",63192020,318994,"318994, Singapore",1.343061624,103.8488068
SHENTON MEDICAL GROUP,"168 Kallang Way Level 1, S349253",68400123,349253,"349253, Singapore",1.325295432,103.8750617
SHENTON MEDICAL GROUP,"2 Changi Business Park Avenue 1, #01-03, Ue Bizhub East, S486015",66362490,486015,"486015, Singapore",1.335764065,103.963024
SHENTON MEDICAL GROUP,"10 Sengkang Central, #01-04, Buangkok Nel Mrt Station, S545061",63153671,545061,"545061, Singapore",1.382877858,103.8931216
SHENTON MEDICAL GROUP,"263 Serangoon Central Drive, #01-59, S550263",64876580,550263,"550263, Singapore",1.353863227,103.8719396
SHENTON MEDICAL GROUP,"2 Jurong Port Road, S619088",63196692,619088,"619088, Singapore",1.322145803,103.7179248
SHENTON MEDICAL GROUP,"30 Woodlands Avenue 2, #01-47/48/49, Woodlands Mrt Station, S738343",63639415,738343,"738343, Singapore",1.436880307,103.7864635
SHENTON MEDICAL GROUP,"11 Collyer Quay, #19-01, The Arcade, S49317",65079730,49317,"049317, Singapore",1.283619823,103.8520589
SHENTON MEDICAL GROUP,"1 Harbourfront Place, #01-04, Harbourfront Tower One, S98633",63775727,98633,"098633, Singapore",1.26499759,103.8190271
